{
"type": "FeatureCollection",
"name": "estaciones_de_metrobus_WGS84",
"crs": { "type": "name", "properties": { "name": "urn:ogc:def:crs:OGC:1.3:CRS84" } },
"features": [
{ "type": "Feature", "properties": { "ID": 1, "NOMBRE": "Liniers", "CALLE1": "FRANCISCO DE VIEDMA", "CALLE2": null, "INTERSEC": "Entre Casco y Gana", "LIN_SENT_N": "34", "LIN_SENT_S": "34", "METROBUS": "Metrobus Juan B. Justo", "NOM_SENTID": "Liniers - Sentido Pacífico", "Observac": null }, "geometry": { "type": "Point", "coordinates": [ -58.526112518066235, -34.63826669416428 ] } },
{ "type": "Feature", "properties": { "ID": 2, "NOMBRE": "Velez Sarsfield", "CALLE1": "JUSTO JUAN B.", "CALLE2": "ALVAREZ JONTE AV", "INTERSEC": "JUSTO JUAN B. & ALVAREZ JONTE AV", "LIN_SENT_N": null, "LIN_SENT_S": "34 - 99 - 166 - 172", "METROBUS": "Metrobus Juan B. Justo", "NOM_SENTID": "Velez Sarsfield - Sentido Liniers", "Observac": null }, "geometry": { "type": "Point", "coordinates": [ -58.519972699360082, -34.633099484623344 ] } },
{ "type": "Feature", "properties": { "ID": 351, "NOMBRE": "Polideportivo Velez Sarsfield", "CALLE1": "JUSTO JUAN B.", "CALLE2": "GARCIA JUAN AGUSTIN", "INTERSEC": "JUSTO JUAN B. & GARCIA JUAN AGUSTIN", "LIN_SENT_N": "34 - 99 - 166 - 172", "LIN_SENT_S": null, "METROBUS": "Metrobus Juan B. Justo", "NOM_SENTID": "Polideportivo Velez Sarsfield - Sentido Pacífico", "Observac": null }, "geometry": { "type": "Point", "coordinates": [ -58.514133057023344, -34.633407755496158 ] } },
{ "type": "Feature", "properties": { "ID": 4, "NOMBRE": "Cortina", "CALLE1": "JUSTO JUAN B.", "CALLE2": "CORTINA", "INTERSEC": "JUSTO JUAN B. & CORTINA", "LIN_SENT_N": null, "LIN_SENT_S": "34 - 99 - 166 - 172", "METROBUS": "Metrobus Juan B. Justo", "NOM_SENTID": "Cortina - Sentido Liniers", "Observac": null }, "geometry": { "type": "Point", "coordinates": [ -58.506402105975098, -34.634258948407052 ] } },
{ "type": "Feature", "properties": { "ID": 356, "NOMBRE": "Carrasco", "CALLE1": "JUSTO JUAN B.", "CALLE2": "CARRASCO", "INTERSEC": "JUSTO JUAN B. & CARRASCO", "LIN_SENT_N": "34 - 99 - 166 - 172", "LIN_SENT_S": null, "METROBUS": "Metrobus Juan B. Justo", "NOM_SENTID": "Carrasco - Sentido Pacífico", "Observac": null }, "geometry": { "type": "Point", "coordinates": [ -58.495010918680258, -34.629665775994646 ] } },
{ "type": "Feature", "properties": { "ID": 7, "NOMBRE": "Av. Segurola", "CALLE1": "JUSTO JUAN B.", "CALLE2": "SEGUROLA", "INTERSEC": "JUSTO JUAN B. & SEGUROLA", "LIN_SENT_N": null, "LIN_SENT_S": "34 - 166", "METROBUS": "Metrobus Juan B. Justo", "NOM_SENTID": "Av. Segurola - Sentido Liniers", "Observac": null }, "geometry": { "type": "Point", "coordinates": [ -58.490880788336703, -34.626906474478901 ] } },
{ "type": "Feature", "properties": { "ID": 358, "NOMBRE": "Chivilcoy", "CALLE1": "JUSTO JUAN B.", "CALLE2": "CHIVILCOY", "INTERSEC": "JUSTO JUAN B. & CHIVILCOY", "LIN_SENT_N": "34 - 166", "LIN_SENT_S": null, "METROBUS": "Metrobus Juan B. Justo", "NOM_SENTID": "Chivilcoy - Sentido Pacífico", "Observac": null }, "geometry": { "type": "Point", "coordinates": [ -58.486082711225883, -34.625235257498957 ] } },
{ "type": "Feature", "properties": { "ID": 359, "NOMBRE": "Concordia", "CALLE1": "JUSTO JUAN B.", "CALLE2": "CONCORDIA", "INTERSEC": "JUSTO JUAN B. & CONCORDIA", "LIN_SENT_N": "34 - 166", "LIN_SENT_S": null, "METROBUS": "Metrobus Juan B. Justo", "NOM_SENTID": "Concordia - Sentido Pacífico", "Observac": null }, "geometry": { "type": "Point", "coordinates": [ -58.480934689402076, -34.622241008239328 ] } },
{ "type": "Feature", "properties": { "ID": 10, "NOMBRE": "Av. Nazca", "CALLE1": "JUSTO JUAN B.", "CALLE2": "NAZCA", "INTERSEC": "JUSTO JUAN B. & NAZCA", "LIN_SENT_N": null, "LIN_SENT_S": "34 - 166", "METROBUS": "Metrobus Juan B. Justo", "NOM_SENTID": "Av. Nazca - Sentido Liniers", "Observac": null }, "geometry": { "type": "Point", "coordinates": [ -58.475947949999529, -34.617897482469729 ] } },
{ "type": "Feature", "properties": { "ID": 361, "NOMBRE": "Artigas", "CALLE1": "JUSTO JUAN B.", "CALLE2": "ARTIGAS JOSE GERVASIO GRAL", "INTERSEC": "JUSTO JUAN B. & ARTIGAS JOSE GERVASIO GRAL", "LIN_SENT_N": "34 - 166", "LIN_SENT_S": null, "METROBUS": "Metrobus Juan B. Justo", "NOM_SENTID": "Artigas - Sentido Pacífico", "Observac": null }, "geometry": { "type": "Point", "coordinates": [ -58.472473920208522, -34.614223800424419 ] } },
{ "type": "Feature", "properties": { "ID": 12, "NOMBRE": "Boyaca", "CALLE1": "JUSTO JUAN B.", "CALLE2": "BOYACA", "INTERSEC": "JUSTO JUAN B. & BOYACA", "LIN_SENT_N": null, "LIN_SENT_S": "34 - 166", "METROBUS": "Metrobus Juan B. Justo", "NOM_SENTID": "Boyaca - Sentido Liniers", "Observac": null }, "geometry": { "type": "Point", "coordinates": [ -58.467682081509878, -34.6111886008716 ] } },
{ "type": "Feature", "properties": { "ID": 13, "NOMBRE": "Av. Donato Alvarez", "CALLE1": "JUSTO JUAN B.", "CALLE2": "ALVAREZ DONATO Tte. Gral.", "INTERSEC": "JUSTO JUAN B. & ALVAREZ DONATO Tte. Gral.", "LIN_SENT_N": null, "LIN_SENT_S": "34 - 110 - 166", "METROBUS": "Metrobus Juan B. Justo", "NOM_SENTID": "Av. Donato Alvarez - Sentido Liniers", "Observac": null }, "geometry": { "type": "Point", "coordinates": [ -58.462530739916154, -34.607223842968949 ] } },
{ "type": "Feature", "properties": { "ID": 14, "NOMBRE": "Av. San Martín", "CALLE1": "JUSTO JUAN B.", "CALLE2": "SAN MARTIN AV.", "INTERSEC": "JUSTO JUAN B. & SAN MARTIN AV.", "LIN_SENT_N": null, "LIN_SENT_S": "34 - 109 - 110 - 166", "METROBUS": "Metrobus Juan B. Justo", "NOM_SENTID": "Av. San Martín - Sentido Liniers", "Observac": null }, "geometry": { "type": "Point", "coordinates": [ -58.458245047238648, -34.604305275834797 ] } },
{ "type": "Feature", "properties": { "ID": 15, "NOMBRE": "Av. Honorio Pueyrredón", "CALLE1": "JUSTO JUAN B.", "CALLE2": "PUEYRREDON HONORIO DR.", "INTERSEC": "JUSTO JUAN B. & PUEYRREDON HONORIO DR.", "LIN_SENT_N": null, "LIN_SENT_S": "34 - 109 - 166", "METROBUS": "Metrobus Juan B. Justo", "NOM_SENTID": "Av. Honorio Pueyrredón - Sentido Liniers", "Observac": null }, "geometry": { "type": "Point", "coordinates": [ -58.451833240136637, -34.599942185541643 ] } },
{ "type": "Feature", "properties": { "ID": 16, "NOMBRE": "Murillo", "CALLE1": "JUSTO JUAN B.", "CALLE2": "MURILLO", "INTERSEC": "JUSTO JUAN B. & MURILLO", "LIN_SENT_N": null, "LIN_SENT_S": "34 - 166", "METROBUS": "Metrobus Juan B. Justo", "NOM_SENTID": "Murillo - Sentido Liniers", "Observac": null }, "geometry": { "type": "Point", "coordinates": [ -58.447560432541209, -34.596976438021912 ] } },
{ "type": "Feature", "properties": { "ID": 17, "NOMBRE": "Av. Corrientes", "CALLE1": "JUSTO JUAN B.", "CALLE2": "CORRIENTES", "INTERSEC": "JUSTO JUAN B. & CORRIENTES", "LIN_SENT_N": null, "LIN_SENT_S": "34 - 166", "METROBUS": "Metrobus Juan B. Justo", "NOM_SENTID": "Av. Corrientes - Sentido Liniers", "Observac": null }, "geometry": { "type": "Point", "coordinates": [ -58.444128656759162, -34.594619107291535 ] } },
{ "type": "Feature", "properties": { "ID": 18, "NOMBRE": "Aguirre", "CALLE1": "JUSTO JUAN B.", "CALLE2": "AGUIRRE", "INTERSEC": "JUSTO JUAN B. & AGUIRRE", "LIN_SENT_N": null, "LIN_SENT_S": "166", "METROBUS": "Metrobus Juan B. Justo", "NOM_SENTID": "Aguirre - Sentido Liniers", "Observac": null }, "geometry": { "type": "Point", "coordinates": [ -58.440563703370294, -34.592141304888713 ] } },
{ "type": "Feature", "properties": { "ID": 20, "NOMBRE": "Honduras", "CALLE1": "JUSTO JUAN B.", "CALLE2": "HONDURAS", "INTERSEC": "JUSTO JUAN B. & HONDURAS", "LIN_SENT_N": null, "LIN_SENT_S": "166", "METROBUS": "Metrobus Juan B. Justo", "NOM_SENTID": "Honduras - Sentido Liniers", "Observac": null }, "geometry": { "type": "Point", "coordinates": [ -58.43461947366837, -34.585243342970784 ] } },
{ "type": "Feature", "properties": { "ID": 21, "NOMBRE": "Guatemala", "CALLE1": "JUSTO JUAN B.", "CALLE2": "GUATEMALA", "INTERSEC": "JUSTO JUAN B. & GUATEMALA", "LIN_SENT_N": null, "LIN_SENT_S": "166", "METROBUS": "Metrobus Juan B. Justo", "NOM_SENTID": "Guatemala - Sentido Liniers", "Observac": null }, "geometry": { "type": "Point", "coordinates": [ -58.429489239662324, -34.581350726099153 ] } },
{ "type": "Feature", "properties": { "ID": 27, "NOMBRE": "Estados Unidos", "CALLE1": "AV. 9 DE JULIO", "CALLE2": null, "INTERSEC": "Entre Carlos Calvo y Estados Unidos", "LIN_SENT_N": "10 - 17 - 59", "LIN_SENT_S": "59 - 10 - 17", "METROBUS": "Metrobus 9 de Julio", "NOM_SENTID": "Estados Unidos", "Observac": null }, "geometry": { "type": "Point", "coordinates": [ -58.380847093432813, -34.619030342036446 ] } },
{ "type": "Feature", "properties": { "ID": 28, "NOMBRE": "Independencia", "CALLE1": "AV. 9 DE JULIO", "CALLE2": null, "INTERSEC": "Entre Estados Unidos e Independencia", "LIN_SENT_N": "45 - 70", "LIN_SENT_S": "45 - 70", "METROBUS": "Metrobus 9 de Julio", "NOM_SENTID": "Independencia", "Observac": null }, "geometry": { "type": "Point", "coordinates": [ -58.380877595080356, -34.618068204692321 ] } },
{ "type": "Feature", "properties": { "ID": 29, "NOMBRE": "Chile", "CALLE1": "AV. 9 DE JULIO", "CALLE2": null, "INTERSEC": "Entre Independencia y Chile", "LIN_SENT_N": "9 - 91 - 100", "LIN_SENT_S": "100 - 9 - 91", "METROBUS": "Metrobus 9 de Julio", "NOM_SENTID": "Chile", "Observac": null }, "geometry": { "type": "Point", "coordinates": [ -58.380931548315296, -34.616941146103727 ] } },
{ "type": "Feature", "properties": { "ID": 30, "NOMBRE": "México", "CALLE1": "AV. 9 DE JULIO", "CALLE2": null, "INTERSEC": "Entre Chile y México", "LIN_SENT_N": "67 - 129", "LIN_SENT_S": "67 - 98 - 129", "METROBUS": "Metrobus 9 de Julio", "NOM_SENTID": "México", "Observac": null }, "geometry": { "type": "Point", "coordinates": [ -58.380976076901625, -34.615881005726145 ] } },
{ "type": "Feature", "properties": { "ID": 31, "NOMBRE": "Venezuela", "CALLE1": "AV. 9 DE JULIO", "CALLE2": null, "INTERSEC": "Entre México y Venezuela", "LIN_SENT_N": "10 - 17 - 59", "LIN_SENT_S": "59 - 10 - 17", "METROBUS": "Metrobus 9 de Julio", "NOM_SENTID": "Venezuela", "Observac": null }, "geometry": { "type": "Point", "coordinates": [ -58.381022379302976, -34.614702744534682 ] } },
{ "type": "Feature", "properties": { "ID": 32, "NOMBRE": "Belgrano", "CALLE1": "AV. 9 DE JULIO", "CALLE2": null, "INTERSEC": "Entre Venezuela y Belgrano", "LIN_SENT_N": "45 - 70 - 100", "LIN_SENT_S": "100 - 45 - 70", "METROBUS": "Metrobus 9 de Julio", "NOM_SENTID": "Belgrano", "Observac": null }, "geometry": { "type": "Point", "coordinates": [ -58.381041023714204, -34.613595027955938 ] } },
{ "type": "Feature", "properties": { "ID": 33, "NOMBRE": "Alsina", "CALLE1": "AV. 9 DE JULIO", "CALLE2": null, "INTERSEC": "Entre Moreno y Alsina", "LIN_SENT_N": "129", "LIN_SENT_S": "129", "METROBUS": "Metrobus 9 de Julio", "NOM_SENTID": "Alsina", "Observac": null }, "geometry": { "type": "Point", "coordinates": [ -58.381164371011401, -34.611167794446921 ] } },
{ "type": "Feature", "properties": { "ID": 34, "NOMBRE": "Yrigoyen", "CALLE1": "AV. 9 DE JULIO", "CALLE2": null, "INTERSEC": "Entre Alsina e Hipólito Yrigoyen", "LIN_SENT_N": "9 - 91 - 67", "LIN_SENT_S": "67 - 9 - 91", "METROBUS": "Metrobus 9 de Julio", "NOM_SENTID": "Yrigoyen", "Observac": null }, "geometry": { "type": "Point", "coordinates": [ -58.381241977533385, -34.610111776693358 ] } },
{ "type": "Feature", "properties": { "ID": 35, "NOMBRE": "Mitre", "CALLE1": "AV. 9 DE JULIO", "CALLE2": null, "INTERSEC": "Entre Rivadavia y Bartolomé Mitre", "LIN_SENT_N": "10 - 17 - 59", "LIN_SENT_S": "59 - 10 - 17", "METROBUS": "Metrobus 9 de Julio", "NOM_SENTID": "Mitre", "Observac": null }, "geometry": { "type": "Point", "coordinates": [ -58.38137985202404, -34.607789085338979 ] } },
{ "type": "Feature", "properties": { "ID": 36, "NOMBRE": "Juan D. Perón", "CALLE1": "AV. 9 DE JULIO", "CALLE2": null, "INTERSEC": "Entre Bartolomé Mitre y Perón", "LIN_SENT_N": "45 - 70 - 100", "LIN_SENT_S": "100 - 45 - 70", "METROBUS": "Metrobus 9 de Julio", "NOM_SENTID": "Juan D. Perón", "Observac": null }, "geometry": { "type": "Point", "coordinates": [ -58.381446395142483, -34.606664361306407 ] } },
{ "type": "Feature", "properties": { "ID": 37, "NOMBRE": "Obelisco Sur", "CALLE1": "AV. 9 DE JULIO", "CALLE2": null, "INTERSEC": "Entre Juan D. Perón y Sarmiento", "LIN_SENT_N": "9 - 67 - 129", "LIN_SENT_S": "9 - 67 - 129", "METROBUS": "Metrobus 9 de Julio", "NOM_SENTID": "Obelisco Sur", "Observac": null }, "geometry": { "type": "Point", "coordinates": [ -58.381526164288204, -34.605539716381024 ] } },
{ "type": "Feature", "properties": { "ID": 38, "NOMBRE": "Obelisco Norte", "CALLE1": "AV. 9 DE JULIO", "CALLE2": null, "INTERSEC": "Entre Lavalle y Tucumán", "LIN_SENT_N": "100 - 17 - 59", "LIN_SENT_S": "59 - 100 - 17", "METROBUS": "Metrobus 9 de Julio", "NOM_SENTID": "Obelisco Norte", "Observac": null }, "geometry": { "type": "Point", "coordinates": [ -58.381745024378823, -34.601891926959375 ] } },
{ "type": "Feature", "properties": { "ID": 39, "NOMBRE": "Teatro Colón", "CALLE1": "AV. 9 DE JULIO", "CALLE2": null, "INTERSEC": "Entre Tucumán y Viamonte", "LIN_SENT_N": "45 - 70 - 10", "LIN_SENT_S": "10 - 45 - 70", "METROBUS": "Metrobus 9 de Julio", "NOM_SENTID": "Teatro Colón", "Observac": null }, "geometry": { "type": "Point", "coordinates": [ -58.381802084740364, -34.600779623130784 ] } },
{ "type": "Feature", "properties": { "ID": 40, "NOMBRE": "Córdoba", "CALLE1": "AV. 9 DE JULIO", "CALLE2": null, "INTERSEC": "Entre Viamonte y Av Córdoba", "LIN_SENT_N": "9 - 67", "LIN_SENT_S": "67 - 9", "METROBUS": "Metrobus 9 de Julio", "NOM_SENTID": "Córdoba", "Observac": null }, "geometry": { "type": "Point", "coordinates": [ -58.381848081996736, -34.599646255181725 ] } },
{ "type": "Feature", "properties": { "ID": 41, "NOMBRE": "Paraguay", "CALLE1": "AV. 9 DE JULIO", "CALLE2": null, "INTERSEC": "Entre Av Córdoba y Paraguay", "LIN_SENT_N": "10 - 17 - 59", "LIN_SENT_S": "59 - 10 - 17", "METROBUS": "Metrobus 9 de Julio", "NOM_SENTID": "Paraguay", "Observac": null }, "geometry": { "type": "Point", "coordinates": [ -58.38189094361617, -34.598372987868174 ] } },
{ "type": "Feature", "properties": { "ID": 42, "NOMBRE": "Marcelo T. de Alvear", "CALLE1": "AV. 9 DE JULIO", "CALLE2": null, "INTERSEC": "Entre Paraguay y Marcelo T. de Alvear", "LIN_SENT_N": "129", "LIN_SENT_S": "129", "METROBUS": "Metrobus 9 de Julio", "NOM_SENTID": "Marcelo T. de Alvear", "Observac": null }, "geometry": { "type": "Point", "coordinates": [ -58.381995761321036, -34.597181435451077 ] } },
{ "type": "Feature", "properties": { "ID": 43, "NOMBRE": "Santa Fe", "CALLE1": "AV. 9 DE JULIO", "CALLE2": null, "INTERSEC": "Entre Marcelo T. de Alvear y Av. Santa Fe", "LIN_SENT_N": "100 - 70 - 67", "LIN_SENT_S": "100 - 70 - 67", "METROBUS": "Metrobus 9 de Julio", "NOM_SENTID": "Santa Fe", "Observac": null }, "geometry": { "type": "Point", "coordinates": [ -58.382113578810959, -34.596010924817193 ] } },
{ "type": "Feature", "properties": { "ID": 44, "NOMBRE": "Centro de Transbordo Constitución", "CALLE1": "BRASIL AV", "CALLE2": "LIMA", "INTERSEC": "BRASIL AV & LIMA", "LIN_SENT_N": null, "LIN_SENT_S": null, "METROBUS": "Centro de Transbordo Constitución", "NOM_SENTID": "Centro de Transbordo Constitución", "Observac": null }, "geometry": { "type": "Point", "coordinates": [ -58.381108017501177, -34.627588439008875 ] } },
{ "type": "Feature", "properties": { "ID": 46, "NOMBRE": "Pichincha", "CALLE1": "GARAY JUAN DE AV", "CALLE2": null, "INTERSEC": "Entre Pasco y Pichincha", "LIN_SENT_N": null, "LIN_SENT_S": "4 - 143", "METROBUS": "Metrobus Sur - Ramal Fernández de la Cruz", "NOM_SENTID": "Pichincha - Sentido Gral Paz", "Observac": null }, "geometry": { "type": "Point", "coordinates": [ -58.396394967208522, -34.627989692861895 ] } },
{ "type": "Feature", "properties": { "ID": 47, "NOMBRE": "Jujuy", "CALLE1": "GARAY JUAN DE AV", "CALLE2": null, "INTERSEC": "Entre jujuy y Alberti", "LIN_SENT_N": null, "LIN_SENT_S": "4 - 143", "METROBUS": "Metrobus Sur - Ramal Fernández de la Cruz", "NOM_SENTID": "Jujuy - Sentido Gral Paz", "Observac": null }, "geometry": { "type": "Point", "coordinates": [ -58.400799759170539, -34.62864262682713 ] } },
{ "type": "Feature", "properties": { "ID": 48, "NOMBRE": "La Rioja", "CALLE1": "CHICLANA AV", "CALLE2": null, "INTERSEC": "Entre La Rioja y Gral Urquiza", "LIN_SENT_N": null, "LIN_SENT_S": "143", "METROBUS": "Metrobus Sur - Ramal Fernández de la Cruz", "NOM_SENTID": "La Rioja - Sentido Gral Paz", "Observac": null }, "geometry": { "type": "Point", "coordinates": [ -58.407237650108705, -34.63116356655231 ] } },
{ "type": "Feature", "properties": { "ID": 49, "NOMBRE": "Sánchez de Loria", "CALLE1": "CHICLANA AV", "CALLE2": null, "INTERSEC": "Entre 24 de Noviembre y Sánchez de Loria", "LIN_SENT_N": null, "LIN_SENT_S": "143", "METROBUS": "Metrobus Sur - Ramal Fernández de la Cruz", "NOM_SENTID": "Sánchez de Loria - Sentido Gral Paz", "Observac": null }, "geometry": { "type": "Point", "coordinates": [ -58.410671336854151, -34.633969672120905 ] } },
{ "type": "Feature", "properties": { "ID": 50, "NOMBRE": "Boedo", "CALLE1": "CHICLANA AV", "CALLE2": null, "INTERSEC": "Entre Álzaga y Boedo", "LIN_SENT_N": null, "LIN_SENT_S": "101 - 143", "METROBUS": "Metrobus Sur - Ramal Fernández de la Cruz", "NOM_SENTID": "Boedo - Sentido Gral Paz", "Observac": null }, "geometry": { "type": "Point", "coordinates": [ -58.414998549008558, -34.636740954318981 ] } },
{ "type": "Feature", "properties": { "ID": 51, "NOMBRE": "Caseros", "CALLE1": "FERNANDEZ DE LA CRUZ AV", "CALLE2": null, "INTERSEC": "Entre Caseros y Trole", "LIN_SENT_N": "23 - 101 - 143", "LIN_SENT_S": null, "METROBUS": "Metrobus Sur - Ramal Fernández de la Cruz", "NOM_SENTID": "Caseros - Sentido Constitución", "Observac": null }, "geometry": { "type": "Point", "coordinates": [ -58.418904661920699, -34.639722772048771 ] } },
{ "type": "Feature", "properties": { "ID": 53, "NOMBRE": "Del Barco Centenera", "CALLE1": "FERNANDEZ DE LA CRUZ AV", "CALLE2": null, "INTERSEC": "Entre Lanza y Del Barco Centenera", "LIN_SENT_N": "101 - 143", "LIN_SENT_S": "101 - 143 - 150", "METROBUS": "Metrobus Sur - Ramal Fernández de la Cruz", "NOM_SENTID": "Del Barco Centenera", "Observac": null }, "geometry": { "type": "Point", "coordinates": [ -58.427975298799538, -34.647560505314736 ] } },
{ "type": "Feature", "properties": { "ID": 66, "NOMBRE": "Puente La Noria", "CALLE1": "GRAL. PAZ AV.", "CALLE2": "27 DE FEBRERO AV", "INTERSEC": "GRAL. PAZ AV & 27 DE FEBRERO AV", "LIN_SENT_N": null, "LIN_SENT_S": null, "METROBUS": "Metrobus Sur", "NOM_SENTID": "Puente La Noria", "Observac": null }, "geometry": { "type": "Point", "coordinates": [ -58.461808971066944, -34.704519695595479 ] } },
{ "type": "Feature", "properties": { "ID": 69, "NOMBRE": "Piedrabuena", "CALLE1": "ROCA CNEL AV", "CALLE2": null, "INTERSEC": "Entre Piedrabuena y Guaminí", "LIN_SENT_N": "91 - 101 - 114 - 117", "LIN_SENT_S": "91 - 114 - 117", "METROBUS": "Metrobus Sur - Ramal Coronel Roca", "NOM_SENTID": "Piedrabuena", "Observac": null }, "geometry": { "type": "Point", "coordinates": [ -58.466374821059851, -34.69468454289602 ] } },
{ "type": "Feature", "properties": { "ID": 70, "NOMBRE": "Lisandro de la Torre", "CALLE1": "ROCA CNEL AV", "CALLE2": null, "INTERSEC": "Entre Lisandro de la Torre y Timoteo Gordillo", "LIN_SENT_N": "47 - 91 - 114 - 117 -150", "LIN_SENT_S": "47 - 91 - 114 - 117", "METROBUS": "Metrobus Sur - Ramal Coronel Roca", "NOM_SENTID": "Lisandro de la Torre", "Observac": null }, "geometry": { "type": "Point", "coordinates": [ -58.463292541586497, -34.691876332330693 ] } },
{ "type": "Feature", "properties": { "ID": 72, "NOMBRE": "Escalada", "CALLE1": "ROCA CNEL AV", "CALLE2": null, "INTERSEC": "Entre Escalada y Pasaje Roca", "LIN_SENT_N": "91 - 115", "LIN_SENT_S": "91 - 115", "METROBUS": "Metrobus Sur - Ramal Coronel Roca", "NOM_SENTID": "Escalada", "Observac": null }, "geometry": { "type": "Point", "coordinates": [ -58.451336742351877, -34.680989939923244 ] } },
{ "type": "Feature", "properties": { "ID": 73, "NOMBRE": "Estadio Parque Roca", "CALLE1": "ROCA CNEL AV", "CALLE2": null, "INTERSEC": "Entre Escalada y Lacarra", "LIN_SENT_N": "91 - 115", "LIN_SENT_S": "91 - 115", "METROBUS": "Metrobus Sur - Ramal Coronel Roca", "NOM_SENTID": "Estadio Parque Roca", "Observac": null }, "geometry": { "type": "Point", "coordinates": [ -58.448651895487387, -34.677178384316825 ] } },
{ "type": "Feature", "properties": { "ID": 74, "NOMBRE": "Parque Roca", "CALLE1": "ROCA CNEL AV", "CALLE2": null, "INTERSEC": "Entre Escalada y Lacarra", "LIN_SENT_N": "91 - 115", "LIN_SENT_S": "91 - 115", "METROBUS": "Metrobus Sur - Ramal Coronel Roca", "NOM_SENTID": "Parque Roca", "Observac": null }, "geometry": { "type": "Point", "coordinates": [ -58.445897537114021, -34.672701408760219 ] } },
{ "type": "Feature", "properties": { "ID": 75, "NOMBRE": "Mariano Acosta", "CALLE1": "ROCA CNEL AV", "CALLE2": null, "INTERSEC": "Entre Pergamino y Mariano Acosta", "LIN_SENT_N": "91 - 115", "LIN_SENT_S": "91 - 115", "METROBUS": "Metrobus Sur - Ramal Coronel Roca", "NOM_SENTID": "Mariano Acosta", "Observac": null }, "geometry": { "type": "Point", "coordinates": [ -58.440662077721903, -34.66668236448195 ] } },
{ "type": "Feature", "properties": { "ID": 76, "NOMBRE": "Lacarra", "CALLE1": "ROCA CNEL AV", "CALLE2": null, "INTERSEC": "Entre Mariano Acosta y Lacarra", "LIN_SENT_N": "91 - 115", "LIN_SENT_S": "91 - 115", "METROBUS": "Metrobus Sur - Ramal Coronel Roca", "NOM_SENTID": "Lacarra", "Observac": null }, "geometry": { "type": "Point", "coordinates": [ -58.443083545439947, -34.668970092222885 ] } },
{ "type": "Feature", "properties": { "ID": 83, "NOMBRE": "Av Sáenz -Centro de Transbordo", "CALLE1": "SAENZ AV", "CALLE2": null, "INTERSEC": "Entre Av Perito Moreno y Av Rabanal", "LIN_SENT_N": "9 - 15 - 28 - 31 - 32 - 75 - 85 - 91 - 112 - 115 - 128 - 160 - 165 - 188", "LIN_SENT_S": "9 - 15 - 28 - 31 - 32 - 46 - 75 - 85 - 91 - 112 - 115 - 128 - 160 - 165 - 188", "METROBUS": "Metrobus Sur - Ramal Coronel Roca", "NOM_SENTID": "Av Sáenz - Centro de Transbordo", "Observac": "Av Sáenz -Centro de Transbordo (Pompeya)" }, "geometry": { "type": "Point", "coordinates": [ -58.416372101962956, -34.652016319680449 ] } },
{ "type": "Feature", "properties": { "ID": 89, "NOMBRE": "La Rioja", "CALLE1": "BRASIL AV", "CALLE2": null, "INTERSEC": "Entre La Rioja y Gral Urquiza", "LIN_SENT_N": "6 - 97 -143", "LIN_SENT_S": null, "METROBUS": "Metrobus Sur - Ramal Coronel Roca", "NOM_SENTID": "La Rioja - Sentido Constitución", "Observac": null }, "geometry": { "type": "Point", "coordinates": [ -58.406602242709063, -34.633888957800416 ] } },
{ "type": "Feature", "properties": { "ID": 90, "NOMBRE": "Jujuy", "CALLE1": "BRASIL AV", "CALLE2": null, "INTERSEC": "Entre Jujuy y Catamarca", "LIN_SENT_N": "6 - 97 -143", "LIN_SENT_S": null, "METROBUS": "Metrobus Sur - Ramal Coronel Roca", "NOM_SENTID": "Jujuy - Sentido Constitución", "Observac": null }, "geometry": { "type": "Point", "coordinates": [ -58.400997466539771, -34.631774725411134 ] } },
{ "type": "Feature", "properties": { "ID": 91, "NOMBRE": "Garrahan", "CALLE1": "BRASIL AV", "CALLE2": null, "INTERSEC": "Entre Pichincha y Combate de los Pozos", "LIN_SENT_N": "6 - 97 -143", "LIN_SENT_S": null, "METROBUS": "Metrobus Sur - Ramal Coronel Roca", "NOM_SENTID": "Garrahan - Sentido Constitución", "Observac": null }, "geometry": { "type": "Point", "coordinates": [ -58.395566238914434, -34.630251697325242 ] } },
{ "type": "Feature", "properties": { "ID": 92, "NOMBRE": "Entre Ríos", "CALLE1": "BRASIL AV", "CALLE2": null, "INTERSEC": "Entre Pichincha y Combate de los Pozos", "LIN_SENT_N": "6 - 97 -143", "LIN_SENT_S": null, "METROBUS": "Metrobus Sur - Ramal Coronel Roca", "NOM_SENTID": "Entre Ríos - Sentido Constitución", "Observac": null }, "geometry": { "type": "Point", "coordinates": [ -58.392108825710807, -34.62959829127626 ] } },
{ "type": "Feature", "properties": { "ID": 93, "NOMBRE": "Soldado de la Frontera", "CALLE1": "ROCA CNEL AV", "CALLE2": null, "INTERSEC": "Entre Soldado de la Frontera y Racedo", "LIN_SENT_N": "47 - 91 - 114 - 115 - 117 - 141 - 150", "LIN_SENT_S": "91 - 115", "METROBUS": "Metrobus Sur - Ramal Coronel Roca", "NOM_SENTID": "Soldado de la Frontera", "Observac": null }, "geometry": { "type": "Point", "coordinates": [ -58.460282084690192, -34.689075087082166 ] } },
{ "type": "Feature", "properties": { "ID": 102, "NOMBRE": "Roosevelt", "CALLE1": "CABILDO AV", "CALLE2": null, "INTERSEC": "Entre Roosvelt y Manuel Ugarte", "LIN_SENT_N": "41 - 57 - 60 - 194", "LIN_SENT_S": null, "METROBUS": "Metrobus Norte - Av Cabildo", "NOM_SENTID": "Roosevelt - Sentido Provincia\/Gral Paz", "Observac": null }, "geometry": { "type": "Point", "coordinates": [ -58.46113897399313, -34.556901062906874 ] } },
{ "type": "Feature", "properties": { "ID": 103, "NOMBRE": "Ugarte", "CALLE1": "CABILDO AV", "CALLE2": null, "INTERSEC": "Entre Manuel Ugarte y Av Congreso", "LIN_SENT_N": "59 - 68 - 133 - 152 - 161", "LIN_SENT_S": null, "METROBUS": "Metrobus Norte - Av Cabildo", "NOM_SENTID": "Ugarte - Sentido Provincia\/Gral Paz", "Observac": null }, "geometry": { "type": "Point", "coordinates": [ -58.461992713016699, -34.555988587247931 ] } },
{ "type": "Feature", "properties": { "ID": 104, "NOMBRE": "Congreso", "CALLE1": "CABILDO AV", "CALLE2": null, "INTERSEC": "Entre Av Congreso y Quesada", "LIN_SENT_N": "29 - 60 - 168 - 184", "LIN_SENT_S": null, "METROBUS": "Metrobus Norte - Av Cabildo", "NOM_SENTID": "Congreso - Sentido Provincia\/Gral Paz", "Observac": null }, "geometry": { "type": "Point", "coordinates": [ -58.462980258266086, -34.554969203380644 ] } },
{ "type": "Feature", "properties": { "ID": 105, "NOMBRE": "Congreso", "CALLE1": "CABILDO AV", "CALLE2": null, "INTERSEC": "Entre Av Congreso y Quesada", "LIN_SENT_N": null, "LIN_SENT_S": "59 - 60 - 68 - 152 - 161", "METROBUS": "Metrobus Norte - Av Cabildo", "NOM_SENTID": "Congreso - Sentido CABA\/Pacífico", "Observac": null }, "geometry": { "type": "Point", "coordinates": [ -58.463040249072812, -34.555034107934055 ] } },
{ "type": "Feature", "properties": { "ID": 106, "NOMBRE": "Quesada", "CALLE1": "CABILDO AV", "CALLE2": null, "INTERSEC": "Entre Quesada e Iberá", "LIN_SENT_N": null, "LIN_SENT_S": "29 - 57- 133 - 168 - 184 - 194", "METROBUS": "Metrobus Norte - Av Cabildo", "NOM_SENTID": "Quesada - Sentido CABA\/Pacífico", "Observac": null }, "geometry": { "type": "Point", "coordinates": [ -58.464055458264639, -34.554037622677377 ] } },
{ "type": "Feature", "properties": { "ID": 107, "NOMBRE": "Iberá", "CALLE1": "CABILDO AV", "CALLE2": null, "INTERSEC": "Entre Guayra y Campos Salles", "LIN_SENT_N": "60 - 133 - 168", "LIN_SENT_S": null, "METROBUS": "Metrobus Norte - Av Cabildo", "NOM_SENTID": "Iberá - Sentido Provincia\/Gral Paz", "Observac": null }, "geometry": { "type": "Point", "coordinates": [ -58.465370568424333, -34.552395893249894 ] } },
{ "type": "Feature", "properties": { "ID": 108, "NOMBRE": "Iberá", "CALLE1": "CABILDO AV", "CALLE2": null, "INTERSEC": "Entre Iberá y Guayra", "LIN_SENT_N": "59 - 68 - 152 - 161", "LIN_SENT_S": null, "METROBUS": "Metrobus Norte - Av Cabildo", "NOM_SENTID": "Iberá - Sentido Provincia\/Gral Paz", "Observac": null }, "geometry": { "type": "Point", "coordinates": [ -58.464798386197472, -34.553098402676177 ] } },
{ "type": "Feature", "properties": { "ID": 109, "NOMBRE": "Campos Salles", "CALLE1": "CABILDO AV", "CALLE2": null, "INTERSEC": "Entre Campos Salles y Manuela Pedraza", "LIN_SENT_N": "29 - 184", "LIN_SENT_S": null, "METROBUS": "Metrobus Norte - Av Cabildo", "NOM_SENTID": "Campos Salles - Sentido Provincia\/Gral Paz", "Observac": null }, "geometry": { "type": "Point", "coordinates": [ -58.465804312417731, -34.551846101695453 ] } },
{ "type": "Feature", "properties": { "ID": 110, "NOMBRE": "Manuela Pedraza", "CALLE1": "CABILDO AV", "CALLE2": null, "INTERSEC": "Entre Manuela Pedraza y Juana Azurduy", "LIN_SENT_N": null, "LIN_SENT_S": "59 - 60 - 68 - 152", "METROBUS": "Metrobus Norte - Av Cabildo", "NOM_SENTID": "Manuela Pedraza - Sentido CABA\/Pacífico", "Observac": null }, "geometry": { "type": "Point", "coordinates": [ -58.466361903314912, -34.551270472273892 ] } },
{ "type": "Feature", "properties": { "ID": 111, "NOMBRE": "Juana Azurduy", "CALLE1": "CABILDO AV", "CALLE2": null, "INTERSEC": "Entre Juana Azurduy y Núñez", "LIN_SENT_N": null, "LIN_SENT_S": "133 - 161 - 168 - 184", "METROBUS": "Metrobus Norte - Av Cabildo", "NOM_SENTID": "Juana Azurduy - Sentido CABA\/Pacífico", "Observac": null }, "geometry": { "type": "Point", "coordinates": [ -58.466966582845998, -34.55050850517236 ] } },
{ "type": "Feature", "properties": { "ID": 112, "NOMBRE": "Núñez", "CALLE1": "CABILDO AV", "CALLE2": null, "INTERSEC": "Entre Núñez y Crisólogo Larralde", "LIN_SENT_N": "59 - 60 - 68 - 133 - 152 - 161 - 168 - 184", "LIN_SENT_S": null, "METROBUS": "Metrobus Norte - Av Cabildo", "NOM_SENTID": "Núñez - Sentido Provincia\/Gral Paz", "Observac": null }, "geometry": { "type": "Point", "coordinates": [ -58.467733279208204, -34.54944894371355 ] } },
{ "type": "Feature", "properties": { "ID": 114, "NOMBRE": "Crisólogo Larralde", "CALLE1": "CABILDO AV", "CALLE2": null, "INTERSEC": "Entre Crisólogo Larralde y Av Comodoro Rivadavia", "LIN_SENT_N": "57 - 194", "LIN_SENT_S": null, "METROBUS": "Metrobus Norte - Av Cabildo", "NOM_SENTID": "Crisólogo Larralde - Sentido Provincia\/Gral Paz", "Observac": null }, "geometry": { "type": "Point", "coordinates": [ -58.468302364682266, -34.548719672852314 ] } },
{ "type": "Feature", "properties": { "ID": 115, "NOMBRE": "Manzanares", "CALLE1": "CABILDO AV", "CALLE2": null, "INTERSEC": "Entre Av García del Río y Manzanares", "LIN_SENT_N": null, "LIN_SENT_S": "59 - 60 - 68 - 133 - 152", "METROBUS": "Metrobus Norte - Av Cabildo", "NOM_SENTID": "Manzanares - Sentido CABA\/Pacífico", "Observac": null }, "geometry": { "type": "Point", "coordinates": [ -58.469092756136675, -34.547856311208008 ] } },
{ "type": "Feature", "properties": { "ID": 116, "NOMBRE": "Vilela", "CALLE1": "CABILDO AV", "CALLE2": null, "INTERSEC": "Entre Paroissien y Vilela", "LIN_SENT_N": "59 - 68 - 152 - 161", "LIN_SENT_S": null, "METROBUS": "Metrobus Norte - Av Cabildo", "NOM_SENTID": "Vilela - Sentido Provincia\/Gral Paz", "Observac": null }, "geometry": { "type": "Point", "coordinates": [ -58.470262474090056, -34.546230973420528 ] } },
{ "type": "Feature", "properties": { "ID": 117, "NOMBRE": "Besares", "CALLE1": "CABILDO AV", "CALLE2": null, "INTERSEC": "Entre Vilela y Besares", "LIN_SENT_N": "60 - 133 - 168 - 184", "LIN_SENT_S": null, "METROBUS": "Metrobus Norte - Av Cabildo", "NOM_SENTID": "Besares - Sentido Provincia\/Gral Paz", "Observac": null }, "geometry": { "type": "Point", "coordinates": [ -58.470697157389338, -34.545652126793946 ] } },
{ "type": "Feature", "properties": { "ID": 118, "NOMBRE": "Ruiz Huidobro", "CALLE1": "CABILDO AV", "CALLE2": null, "INTERSEC": "Entre Besares y Ruiz Huidobro", "LIN_SENT_N": null, "LIN_SENT_S": "59 - 60 - 68 - 152", "METROBUS": "Metrobus Norte - Av Cabildo", "NOM_SENTID": "Ruiz Huidobro - Sentido CABA\/Pacífico", "Observac": null }, "geometry": { "type": "Point", "coordinates": [ -58.471317568905398, -34.544926108221354 ] } },
{ "type": "Feature", "properties": { "ID": 119, "NOMBRE": "Correa", "CALLE1": "CABILDO AV", "CALLE2": null, "INTERSEC": "Entre Ruiz Huidobro y Correa", "LIN_SENT_N": null, "LIN_SENT_S": "133 - 161 - 168 - 184", "METROBUS": "Metrobus Norte - Av Cabildo", "NOM_SENTID": "Correa - Sentido CABA\/Pacífico", "Observac": null }, "geometry": { "type": "Point", "coordinates": [ -58.471823363792232, -34.544239337000704 ] } },
{ "type": "Feature", "properties": { "ID": 120, "NOMBRE": "Ramallo", "CALLE1": "CABILDO AV", "CALLE2": null, "INTERSEC": "Entre Correa y Ramallo", "LIN_SENT_N": "59 - 68 - 152 - 161", "LIN_SENT_S": null, "METROBUS": "Metrobus Norte - Av Cabildo", "NOM_SENTID": "Ramallo - Sentido Provincia\/Gral Paz", "Observac": null }, "geometry": { "type": "Point", "coordinates": [ -58.472360748578247, -34.543395593204139 ] } },
{ "type": "Feature", "properties": { "ID": 121, "NOMBRE": "Arias", "CALLE1": "CABILDO AV", "CALLE2": null, "INTERSEC": "Entre Ramallo y Arias", "LIN_SENT_N": "60 - 133 - 168 - 184", "LIN_SENT_S": null, "METROBUS": "Metrobus Norte - Av Cabildo", "NOM_SENTID": "Arias - Sentido Provincia\/Gral Paz", "Observac": null }, "geometry": { "type": "Point", "coordinates": [ -58.472917893688418, -34.542643409901927 ] } },
{ "type": "Feature", "properties": { "ID": 122, "NOMBRE": "Deheza", "CALLE1": "CABILDO AV", "CALLE2": null, "INTERSEC": "Entre Arias y Deheza", "LIN_SENT_N": null, "LIN_SENT_S": "59 - 60 - 68 - 152", "METROBUS": "Metrobus Norte - Av Cabildo", "NOM_SENTID": "Deheza - Sentido CABA\/Pacífico", "Observac": null }, "geometry": { "type": "Point", "coordinates": [ -58.473538264023105, -34.541920649861289 ] } },
{ "type": "Feature", "properties": { "ID": 123, "NOMBRE": "Pico", "CALLE1": "CABILDO AV", "CALLE2": null, "INTERSEC": "Entre Deheza y Pico", "LIN_SENT_N": null, "LIN_SENT_S": "133 - 161 - 168 - 184", "METROBUS": "Metrobus Norte - Av Cabildo", "NOM_SENTID": "Pico - Sentido CABA\/Pacífico", "Observac": null }, "geometry": { "type": "Point", "coordinates": [ -58.474099341090955, -34.541171730805829 ] } },
{ "type": "Feature", "properties": { "ID": 124, "NOMBRE": "Puente Saavedra", "CALLE1": "CABILDO AV", "CALLE2": "PAZ GRAL AV", "INTERSEC": "Debajo de la Av Gral Paz", "LIN_SENT_N": "59 - 130 - 152 - 184", "LIN_SENT_S": null, "METROBUS": "Metrobus Norte - Av Cabildo", "NOM_SENTID": "Puente Saavedra - Sentido Provincia\/Gral Paz", "Observac": null }, "geometry": { "type": "Point", "coordinates": [ -58.475744919179661, -34.538821201973811 ] } },
{ "type": "Feature", "properties": { "ID": 125, "NOMBRE": "Puente Saavedra", "CALLE1": "CABILDO AV", "CALLE2": "PAZ GRAL AV", "INTERSEC": "Debajo de la Av Gral Paz", "LIN_SENT_N": null, "LIN_SENT_S": "152 - 161 - 184", "METROBUS": "Metrobus Norte - Av Cabildo", "NOM_SENTID": "Puente Saavedra - Sentido CABA\/Pacífico", "Observac": null }, "geometry": { "type": "Point", "coordinates": [ -58.47592498660611, -34.538901199510747 ] } },
{ "type": "Feature", "properties": { "ID": 126, "NOMBRE": "Puente Saavedra", "CALLE1": "CABILDO AV", "CALLE2": "PAZ GRAL AV", "INTERSEC": "Debajo de la Av Gral Paz", "LIN_SENT_N": "21 - 60 - 68 - 133 - 151 - 168", "LIN_SENT_S": null, "METROBUS": "Metrobus Norte - Av Cabildo", "NOM_SENTID": "Puente Saavedra - Sentido Provincia\/Gral Paz", "Observac": null }, "geometry": { "type": "Point", "coordinates": [ -58.475514836296739, -34.538737070623434 ] } },
{ "type": "Feature", "properties": { "ID": 127, "NOMBRE": "Puente Saavedra", "CALLE1": "CABILDO AV", "CALLE2": "PAZ GRAL AV", "INTERSEC": "Debajo de la Av Gral Paz", "LIN_SENT_N": null, "LIN_SENT_S": "19 - 59 - 71 - 130 - 151", "METROBUS": "Metrobus Norte - Av Cabildo", "NOM_SENTID": "Puente Saavedra - Sentido CABA\/Pacífico", "Observac": null }, "geometry": { "type": "Point", "coordinates": [ -58.476136741602112, -34.539048793785206 ] } },
{ "type": "Feature", "properties": { "ID": 128, "NOMBRE": "Laprida", "CALLE1": "MAIPU AV", "CALLE2": null, "INTERSEC": "Entre Aristóbulo del Valle y Francisco Narciso de Laprida", "LIN_SENT_N": "19 - 59 - 60 -71 - 130 - 152", "LIN_SENT_S": null, "METROBUS": "Metrobus Norte - Av Maipú (provincia)", "NOM_SENTID": "Laprida - Sentido Provincia de Buenos Aires", "Observac": null }, "geometry": { "type": "Point", "coordinates": [ -58.477293412483206, -34.535904855310065 ] } },
{ "type": "Feature", "properties": { "ID": 129, "NOMBRE": "Alsina", "CALLE1": "MAIPU AV", "CALLE2": null, "INTERSEC": "Entre Narciso de Laprida y Adolfo Alsina", "LIN_SENT_N": "21 - 161 - 168 - 184 - 203 - 314 - 365", "LIN_SENT_S": null, "METROBUS": "Metrobus Norte - Av Maipú (provincia)", "NOM_SENTID": "Alsina - Sentido Provincia de Buenos Aires", "Observac": null }, "geometry": { "type": "Point", "coordinates": [ -58.477786536372761, -34.534937619870675 ] } },
{ "type": "Feature", "properties": { "ID": 130, "NOMBRE": "Álvarez", "CALLE1": "MAIPU AV", "CALLE2": null, "INTERSEC": "Entre Adolfo Alsina y Agustín Álvarez", "LIN_SENT_N": null, "LIN_SENT_S": "19 - 59 - 71 -152 - 161", "METROBUS": "Metrobus Norte - Av Maipú (provincia)", "NOM_SENTID": "Álvarez - Sentido Ciudad de Buenos Aires", "Observac": null }, "geometry": { "type": "Point", "coordinates": [ -58.47837072663247, -34.534020613533031 ] } },
{ "type": "Feature", "properties": { "ID": 131, "NOMBRE": "Lavalle", "CALLE1": "MAIPU AV", "CALLE2": null, "INTERSEC": "Entre Agustín Álvarez y Gral Lavalle", "LIN_SENT_N": null, "LIN_SENT_S": "60 - 130 - 168 - 203 - 314 - 365", "METROBUS": "Metrobus Norte - Av Maipú (provincia)", "NOM_SENTID": "Lavalle - Sentido Ciudad de Buenos Aires", "Observac": null }, "geometry": { "type": "Point", "coordinates": [ -58.478856247719392, -34.533103617357526 ] } },
{ "type": "Feature", "properties": { "ID": 132, "NOMBRE": "Las Heras", "CALLE1": "MAIPU AV", "CALLE2": null, "INTERSEC": "Entre Gral Lavalle y Las Heras", "LIN_SENT_N": "19 - 59 - 60 - 71 - 130 - 152 - 168", "LIN_SENT_S": null, "METROBUS": "Metrobus Norte - Av Maipú (provincia)", "NOM_SENTID": "Las Heras - Sentido Provincia de Buenos Aires", "Observac": null }, "geometry": { "type": "Point", "coordinates": [ -58.479189969660617, -34.532130116430956 ] } },
{ "type": "Feature", "properties": { "ID": 133, "NOMBRE": "Guemes", "CALLE1": "MAIPU AV", "CALLE2": null, "INTERSEC": "Entre Las Heras y Guemes", "LIN_SENT_N": "21 - 161 - 184 - 203 - 314 - 365", "LIN_SENT_S": null, "METROBUS": "Metrobus Norte - Av Maipú (provincia)", "NOM_SENTID": "Guemes - Sentido Provincia de Buenos Aires", "Observac": null }, "geometry": { "type": "Point", "coordinates": [ -58.479690636878487, -34.531156591327729 ] } },
{ "type": "Feature", "properties": { "ID": 134, "NOMBRE": "Melo", "CALLE1": "MAIPU AV", "CALLE2": null, "INTERSEC": "Entre Guemes y Melo", "LIN_SENT_N": null, "LIN_SENT_S": "19 - 59- 71 -152", "METROBUS": "Metrobus Norte - Av Maipú (provincia)", "NOM_SENTID": "Melo - Sentido Ciudad de Buenos Aires", "Observac": null }, "geometry": { "type": "Point", "coordinates": [ -58.480327886151521, -34.530170483650075 ] } },
{ "type": "Feature", "properties": { "ID": 135, "NOMBRE": "Haedo", "CALLE1": "MAIPU AV", "CALLE2": null, "INTERSEC": "Entre Melo y Haedo", "LIN_SENT_N": null, "LIN_SENT_S": "60 - 130 - 168 - 203 - 314 - 365", "METROBUS": "Metrobus Norte - Av Maipú (provincia)", "NOM_SENTID": "Haedo - Sentido Ciudad de Buenos Aires", "Observac": null }, "geometry": { "type": "Point", "coordinates": [ -58.480798202551959, -34.529328845777613 ] } },
{ "type": "Feature", "properties": { "ID": 136, "NOMBRE": "Santa Rosa", "CALLE1": "MAIPU AV", "CALLE2": null, "INTERSEC": "Entre Martín J. Haedo y Santa Rosa", "LIN_SENT_N": "19 - 59 - 71 - 152", "LIN_SENT_S": null, "METROBUS": "Metrobus Norte - Av Maipú (provincia)", "NOM_SENTID": "Santa Rosa - Sentido Provincia de Buenos Aires", "Observac": null }, "geometry": { "type": "Point", "coordinates": [ -58.481306379518621, -34.528160621093704 ] } },
{ "type": "Feature", "properties": { "ID": 137, "NOMBRE": "Roca", "CALLE1": "MAIPU AV", "CALLE2": null, "INTERSEC": "Entre Santa Rosa y Roca", "LIN_SENT_N": "60 - 130 - 168 - 203 - 314 -365", "LIN_SENT_S": null, "METROBUS": "Metrobus Norte - Av Maipú (provincia)", "NOM_SENTID": "Roca - Sentido Provincia de Buenos Aires", "Observac": null }, "geometry": { "type": "Point", "coordinates": [ -58.481738741226948, -34.5273566673145 ] } },
{ "type": "Feature", "properties": { "ID": 138, "NOMBRE": "Urquiza", "CALLE1": "MAIPU AV", "CALLE2": null, "INTERSEC": "Entre Roca y Urquiza", "LIN_SENT_N": null, "LIN_SENT_S": "19 - 59 - 71 - 152", "METROBUS": "Metrobus Norte - Av Maipú (provincia)", "NOM_SENTID": "Urquiza - Sentido Ciudad de Buenos Aires", "Observac": null }, "geometry": { "type": "Point", "coordinates": [ -58.482391133325649, -34.52645219071173 ] } },
{ "type": "Feature", "properties": { "ID": 139, "NOMBRE": "Vergara", "CALLE1": "MAIPU AV", "CALLE2": null, "INTERSEC": "Entre Urquiza y Vergara", "LIN_SENT_N": null, "LIN_SENT_S": "60 - 130 - 168 - 203 - 314 - 365", "METROBUS": "Metrobus Norte - Av Maipú (provincia)", "NOM_SENTID": "Vergara - Sentido Ciudad de Buenos Aires", "Observac": null }, "geometry": { "type": "Point", "coordinates": [ -58.482922086927985, -34.525497487693727 ] } },
{ "type": "Feature", "properties": { "ID": 140, "NOMBRE": "San Martín", "CALLE1": "MAIPU AV", "CALLE2": null, "INTERSEC": "Entre Vergara y Gral San Martín", "LIN_SENT_N": "19 - 60 - 71 - 130 - 168", "LIN_SENT_S": null, "METROBUS": "Metrobus Norte - Av Maipú (provincia)", "NOM_SENTID": "San Martín - Sentido Provincia de Buenos Aires", "Observac": null }, "geometry": { "type": "Point", "coordinates": [ -58.48336952591724, -34.524410908575916 ] } },
{ "type": "Feature", "properties": { "ID": 141, "NOMBRE": "Arenales", "CALLE1": "MAIPU AV", "CALLE2": null, "INTERSEC": "Entre Gral San Martín y Arenales", "LIN_SENT_N": "59 - 152", "LIN_SENT_S": null, "METROBUS": "Metrobus Norte - Av Maipú (provincia)", "NOM_SENTID": "Arenales - Sentido Provincia de Buenos Aires", "Observac": null }, "geometry": { "type": "Point", "coordinates": [ -58.483892867336024, -34.523456202310996 ] } },
{ "type": "Feature", "properties": { "ID": 142, "NOMBRE": "Libertad", "CALLE1": "MAIPU AV", "CALLE2": null, "INTERSEC": "Entre Arenales y Libertad", "LIN_SENT_N": "203 - 314 - 365", "LIN_SENT_S": null, "METROBUS": "Metrobus Norte - Av Maipú (provincia)", "NOM_SENTID": "Libertad - Sentido Provincia de Buenos Aires", "Observac": null }, "geometry": { "type": "Point", "coordinates": [ -58.484385856253347, -34.522545461665132 ] } },
{ "type": "Feature", "properties": { "ID": 143, "NOMBRE": "Yrigoyen", "CALLE1": "MAIPU AV", "CALLE2": null, "INTERSEC": "Entre Libertad e Hipólito Yrigoyen", "LIN_SENT_N": null, "LIN_SENT_S": "19 - 59 - 71 - 152", "METROBUS": "Metrobus Norte - Av Maipú (provincia)", "NOM_SENTID": "Yrigoyen - Sentido Ciudad de Buenos Aires", "Observac": null }, "geometry": { "type": "Point", "coordinates": [ -58.485045743321429, -34.521540482857802 ] } },
{ "type": "Feature", "properties": { "ID": 144, "NOMBRE": "Italia", "CALLE1": "MAIPU AV", "CALLE2": null, "INTERSEC": "Entre Hipólito Yrigoyen e Italia", "LIN_SENT_N": null, "LIN_SENT_S": "21 - 60 - 203 - 314 - 365", "METROBUS": "Metrobus Norte - Av Maipú (provincia)", "NOM_SENTID": "Italia - Sentido Ciudad de Buenos Aires", "Observac": null }, "geometry": { "type": "Point", "coordinates": [ -58.485667625501236, -34.520353376576438 ] } },
{ "type": "Feature", "properties": { "ID": 145, "NOMBRE": "Malaver", "CALLE1": "MAIPU AV", "CALLE2": null, "INTERSEC": "Entre Italia y Antonio Malaver", "LIN_SENT_N": "19 - 21 - 59 - 60 - 71 - 152 - 203 - 314 - 365", "LIN_SENT_S": null, "METROBUS": "Metrobus Norte - Av Maipú (provincia)", "NOM_SENTID": "Malaver - Sentido Provincia de Buenos Aires", "Observac": null }, "geometry": { "type": "Point", "coordinates": [ -58.486243923286303, -34.519021827020786 ] } },
{ "type": "Feature", "properties": { "ID": 147, "NOMBRE": "Pappo Napolitano", "CALLE1": "AV SAN MARTIN", "CALLE2": null, "INTERSEC": "Entre Juan B. Justo y Fragata Sarmiento", "LIN_SENT_N": null, "LIN_SENT_S": "Sentido Este: 24 - 57 - 105 - 135 - 146", "METROBUS": "Metrobus Av San Martín", "NOM_SENTID": "Pappo Napolitano", "Observac": null }, "geometry": { "type": "Point", "coordinates": [ -58.459314462146679, -34.604276314915403 ] } },
{ "type": "Feature", "properties": { "ID": 148, "NOMBRE": "Donato Álvarez", "CALLE1": "AV SAN MARTIN", "CALLE2": null, "INTERSEC": "Entre Juan A. García y Adolfo Dickman", "LIN_SENT_N": "Sentido Oeste: 24 - 57 - 105 - 109 - 135 - 146", "LIN_SENT_S": "Sentido Este: 24 - 57 - 105 - 109 - 135 - 146", "METROBUS": "Metrobus Av San Martín", "NOM_SENTID": "Donato Álvarez", "Observac": null }, "geometry": { "type": "Point", "coordinates": [ -58.465215193045218, -34.602774929580498 ] } },
{ "type": "Feature", "properties": { "ID": 149, "NOMBRE": "Argentinos Juniors", "CALLE1": "AV SAN MARTIN", "CALLE2": null, "INTERSEC": "Entre Álvarez Jonte y Miguel Ángel", "LIN_SENT_N": "Sentido Oeste: 24 - 57 - 105 - 146", "LIN_SENT_S": "Sentido Este: 24 - 57 - 105 - 146", "METROBUS": "Metrobus Av San Martín", "NOM_SENTID": "Argentinos Juniors", "Observac": null }, "geometry": { "type": "Point", "coordinates": [ -58.470119655218092, -34.601585413554091 ] } },
{ "type": "Feature", "properties": { "ID": 150, "NOMBRE": "Empedrado", "CALLE1": "AV SAN MARTIN", "CALLE2": null, "INTERSEC": "Entre Basilio Cittadini y Gral Rivas", "LIN_SENT_N": "Sentido Oeste: 47 - 57 - 78 - 105 - 146", "LIN_SENT_S": "Sentido Este: 47 - 57 - 78 - 105 - 146", "METROBUS": "Metrobus Av San Martín", "NOM_SENTID": "Empedrado", "Observac": null }, "geometry": { "type": "Point", "coordinates": [ -58.480939832332965, -34.598762427287816 ] } },
{ "type": "Feature", "properties": { "ID": 151, "NOMBRE": "Agronomía", "CALLE1": "AV SAN MARTIN", "CALLE2": null, "INTERSEC": "Entre Gral Rivas y Melincué", "LIN_SENT_N": "Sentido Oeste: 57 - 78 - 105 - 146", "LIN_SENT_S": "Sentido Este: 57 - 78 - 105 - 146", "METROBUS": "Metrobus Av San Martín", "NOM_SENTID": "Agronomía", "Observac": null }, "geometry": { "type": "Point", "coordinates": [ -58.483526239117928, -34.597751897357199 ] } },
{ "type": "Feature", "properties": { "ID": 152, "NOMBRE": "2 de Abril", "CALLE1": "AV SAN MARTIN", "CALLE2": null, "INTERSEC": "Entre Melincué y est. Plurinacional de Bolivia", "LIN_SENT_N": "Sentido Oeste: 57 - 78 - 105 - 146", "LIN_SENT_S": "Sentido Este: 57 - 78 - 105 - 146", "METROBUS": "Metrobus Av San Martín", "NOM_SENTID": "2 de Abril", "Observac": null }, "geometry": { "type": "Point", "coordinates": [ -58.48689265162534, -34.597481367995051 ] } },
{ "type": "Feature", "properties": { "ID": 153, "NOMBRE": "Comunicaciones", "CALLE1": "AV SAN MARTIN", "CALLE2": null, "INTERSEC": "Entre Tinogasta y Nazca", "LIN_SENT_N": "Sentido Oeste: 57 - 78 - 105 - 146", "LIN_SENT_S": "Sentido Este: 57 - 78 - 105 - 146", "METROBUS": "Metrobus Av San Martín", "NOM_SENTID": "Comunicaciones", "Observac": null }, "geometry": { "type": "Point", "coordinates": [ -58.491496752974719, -34.597162158662634 ] } },
{ "type": "Feature", "properties": { "ID": 154, "NOMBRE": "Roffo", "CALLE1": "AV SAN MARTIN", "CALLE2": null, "INTERSEC": "Entre Nazca y Beiró", "LIN_SENT_N": "Sentido Oeste: 57 - 78 - 105 - 146", "LIN_SENT_S": "Sentido Este: 57 - 78 - 105 - 146", "METROBUS": "Metrobus Av San Martín", "NOM_SENTID": "Roffo", "Observac": null }, "geometry": { "type": "Point", "coordinates": [ -58.495198618281492, -34.596915822264059 ] } },
{ "type": "Feature", "properties": { "ID": 155, "NOMBRE": "Solano López", "CALLE1": "AV SAN MARTIN", "CALLE2": null, "INTERSEC": "Entre Navarro y Pedro Morán", "LIN_SENT_N": "Sentido Oeste: 57 - 78", "LIN_SENT_S": "Sentido Este: 57 - 78 - 105", "METROBUS": "Metrobus Av San Martín", "NOM_SENTID": "Solano López", "Observac": null }, "geometry": { "type": "Point", "coordinates": [ -58.49938257157266, -34.595996721056665 ] } },
{ "type": "Feature", "properties": { "ID": 156, "NOMBRE": "Cubas", "CALLE1": "AV SAN MARTIN", "CALLE2": null, "INTERSEC": "Entre Habana y Vallejos", "LIN_SENT_N": "Sentido Oeste: 57 - 78 - 123 - 176", "LIN_SENT_S": "Sentido Este: 57 - 78", "METROBUS": "Metrobus Av San Martín", "NOM_SENTID": "Cubas", "Observac": null }, "geometry": { "type": "Point", "coordinates": [ -58.50750295006528, -34.592977814026412 ] } },
{ "type": "Feature", "properties": { "ID": 157, "NOMBRE": "Mosconi", "CALLE1": "AV SAN MARTIN", "CALLE2": null, "INTERSEC": "Entre Gabriela Mistral y Carlos Antonio López", "LIN_SENT_N": "Sentido Oeste: 57 - 78 - 87 - 123 - 176", "LIN_SENT_S": "Sentido Este: 57 - 78 - 123 - 176", "METROBUS": "Metrobus Av San Martín", "NOM_SENTID": "Mosconi", "Observac": null }, "geometry": { "type": "Point", "coordinates": [ -58.511192184082546, -34.591631370530571 ] } },
{ "type": "Feature", "properties": { "ID": 158, "NOMBRE": "Ladines", "CALLE1": "AV SAN MARTIN", "CALLE2": null, "INTERSEC": "Entre Griveo y Cabezón José León", "LIN_SENT_N": "Sentido Oeste: 57 - 78 - 87 - 123 - 176", "LIN_SENT_S": "Sentido Este: 57 - 78 - 87 - 123 - 176", "METROBUS": "Metrobus Av San Martín", "NOM_SENTID": "Ladines", "Observac": null }, "geometry": { "type": "Point", "coordinates": [ -58.515194768457562, -34.590420283315936 ] } },
{ "type": "Feature", "properties": { "ID": 159, "NOMBRE": "Monroe", "CALLE1": "CABILDO AV", "CALLE2": null, "INTERSEC": "Entre Av Monroe y Roosevelt", "LIN_SENT_N": null, "LIN_SENT_S": "29 - 41 - 59 - 60 - 152 - 161", "METROBUS": "Metrobus Norte - Av Cabildo", "NOM_SENTID": "Monroe - Sentido CABA\/Pacífico", "Observac": null }, "geometry": { "type": "Point", "coordinates": [ -58.460335977013145, -34.557893709816049 ] } },
{ "type": "Feature", "properties": { "ID": 160, "NOMBRE": "Blanco Encalada", "CALLE1": "CABILDO AV", "CALLE2": null, "INTERSEC": "Entre Blanco Encalada y Av Monroe", "LIN_SENT_N": null, "LIN_SENT_S": "68 - 168 - 184", "METROBUS": "Metrobus Norte - Av Cabildo", "NOM_SENTID": "Blanco Encalada - Sentido CABA\/Pacífico", "Observac": null }, "geometry": { "type": "Point", "coordinates": [ -58.459769062519797, -34.558547160904723 ] } },
{ "type": "Feature", "properties": { "ID": 161, "NOMBRE": "Blanco Encalada", "CALLE1": "CABILDO AV", "CALLE2": null, "INTERSEC": "Entre Blanco Encalada y Av Monroe", "LIN_SENT_N": "161 - 168 - 184", "LIN_SENT_S": null, "METROBUS": "Metrobus Norte - Av Cabildo", "NOM_SENTID": "Blanco Encalada - Sentido Provincia\/Gral Paz", "Observac": null }, "geometry": { "type": "Point", "coordinates": [ -58.459269359887422, -34.558910130896344 ] } },
{ "type": "Feature", "properties": { "ID": 162, "NOMBRE": "Olazábal", "CALLE1": "CABILDO AV", "CALLE2": null, "INTERSEC": "Entre Olazábal y Blanco Encalada", "LIN_SENT_N": "29 - 41 - 59 - 60 - 68 - 152", "LIN_SENT_S": null, "METROBUS": "Metrobus Norte - Av Cabildo", "NOM_SENTID": "Olazábal - Sentido Provincia\/Gral Paz", "Observac": null }, "geometry": { "type": "Point", "coordinates": [ -58.458646866370174, -34.559688088529192 ] } },
{ "type": "Feature", "properties": { "ID": 163, "NOMBRE": "Mendoza", "CALLE1": "CABILDO AV", "CALLE2": null, "INTERSEC": "Entre Mendoza y Olazábal", "LIN_SENT_N": null, "LIN_SENT_S": "29 - 41 - 59 - 60 - 68 - 152 - 161", "METROBUS": "Metrobus Norte - Av Cabildo", "NOM_SENTID": "Mendoza - Sentido CABA\/Pacífico", "Observac": null }, "geometry": { "type": "Point", "coordinates": [ -58.457982268212817, -34.560573822248955 ] } },
{ "type": "Feature", "properties": { "ID": 164, "NOMBRE": "Juramento", "CALLE1": "CABILDO AV", "CALLE2": null, "INTERSEC": "Entre Juramento y Mendoza", "LIN_SENT_N": "57 - 194", "LIN_SENT_S": null, "METROBUS": "Metrobus Norte - Av Cabildo", "NOM_SENTID": "Juramento - Sentido Provincia\/Gral Paz", "Observac": null }, "geometry": { "type": "Point", "coordinates": [ -58.457142286390599, -34.561444272684142 ] } },
{ "type": "Feature", "properties": { "ID": 165, "NOMBRE": "Sucre", "CALLE1": "CABILDO AV", "CALLE2": null, "INTERSEC": "Entre Sucre y Echeverría", "LIN_SENT_N": "41 - 59 - 60 - 63 - 67 - 68 - 152 - 161 - 168 - 184", "LIN_SENT_S": null, "METROBUS": "Metrobus Norte - Av Cabildo", "NOM_SENTID": "Sucre - Sentido Provincia\/Gral Paz", "Observac": null }, "geometry": { "type": "Point", "coordinates": [ -58.455471482953293, -34.56338750607334 ] } },
{ "type": "Feature", "properties": { "ID": 166, "NOMBRE": "La Pampa", "CALLE1": "CABILDO AV", "CALLE2": null, "INTERSEC": "Entre La Pampa y Sucre", "LIN_SENT_N": null, "LIN_SENT_S": "44 - 63 - 65 - 80 - 168 - 184", "METROBUS": "Metrobus Norte - Av Cabildo", "NOM_SENTID": "La Pampa - Sentido CABA\/Pacífico", "Observac": null }, "geometry": { "type": "Point", "coordinates": [ -58.454769894658028, -34.564333033618226 ] } },
{ "type": "Feature", "properties": { "ID": 167, "NOMBRE": "Virrey del Pino", "CALLE1": "CABILDO AV", "CALLE2": null, "INTERSEC": "Entre Virrey del Pino y José Hernández", "LIN_SENT_N": null, "LIN_SENT_S": "57 - 194", "METROBUS": "Metrobus Norte - Av Cabildo", "NOM_SENTID": "Virrey del Pino - Sentido CABA\/Pacífico", "Observac": null }, "geometry": { "type": "Point", "coordinates": [ -58.452845694867641, -34.565877034411358 ] } },
{ "type": "Feature", "properties": { "ID": 168, "NOMBRE": "Virrey Arredondo", "CALLE1": "CABILDO AV", "CALLE2": null, "INTERSEC": "Entre Virrey Arredondo y Virrey del Pino", "LIN_SENT_N": null, "LIN_SENT_S": "41 - 59 - 60 - 63 - 67 - 68 - 152 - 161", "METROBUS": "Metrobus Norte - Av Cabildo", "NOM_SENTID": "Virrey Arredondo - Sentido CABA\/Pacífico", "Observac": null }, "geometry": { "type": "Point", "coordinates": [ -58.451610187130917, -34.566506966321548 ] } },
{ "type": "Feature", "properties": { "ID": 169, "NOMBRE": "Virrey Loreto", "CALLE1": "CABILDO AV", "CALLE2": null, "INTERSEC": "Entre Virrey Loreto y Virrey Arredondo", "LIN_SENT_N": "59 - 60 - 152", "LIN_SENT_S": null, "METROBUS": "Metrobus Norte - Av Cabildo", "NOM_SENTID": "Virrey Loreto - Sentido Provincia\/Gral Paz", "Observac": null }, "geometry": { "type": "Point", "coordinates": [ -58.450183443264201, -34.567198647245085 ] } },
{ "type": "Feature", "properties": { "ID": 170, "NOMBRE": "Zabala", "CALLE1": "CABILDO AV", "CALLE2": null, "INTERSEC": "Entre Céspedes y Virrey Loreto", "LIN_SENT_N": "41 - 63 - 67 - 68 - 161", "LIN_SENT_S": null, "METROBUS": "Metrobus Norte - Av Cabildo", "NOM_SENTID": "Zabala - Sentido Provincia\/Gral Paz", "Observac": null }, "geometry": { "type": "Point", "coordinates": [ -58.449277154800278, -34.567674222032508 ] } },
{ "type": "Feature", "properties": { "ID": 171, "NOMBRE": "Céspedes", "CALLE1": "CABILDO AV", "CALLE2": null, "INTERSEC": "Entre Céspedes y Zabala", "LIN_SENT_N": null, "LIN_SENT_S": "59 - 60 - 63 - 67", "METROBUS": "Metrobus Norte - Av Cabildo", "NOM_SENTID": "Céspedes - Sentido CABA\/Pacífico", "Observac": null }, "geometry": { "type": "Point", "coordinates": [ -58.448575541946752, -34.568137383313982 ] } },
{ "type": "Feature", "properties": { "ID": 172, "NOMBRE": "Aguilar", "CALLE1": "CABILDO AV", "CALLE2": null, "INTERSEC": "Entre Aguilar y Céspedes", "LIN_SENT_N": null, "LIN_SENT_S": "41 - 68 - 152 - 161", "METROBUS": "Metrobus Norte - Av Cabildo", "NOM_SENTID": "Aguilar - Sentido CABA\/Pacífico", "Observac": null }, "geometry": { "type": "Point", "coordinates": [ -58.447603142320077, -34.568646322322181 ] } },
{ "type": "Feature", "properties": { "ID": 173, "NOMBRE": "Palpa", "CALLE1": "CABILDO AV", "CALLE2": null, "INTERSEC": "Entre Palpa y Aguilar", "LIN_SENT_N": "59 - 60 - 152", "LIN_SENT_S": null, "METROBUS": "Metrobus Norte - Av Cabildo", "NOM_SENTID": "Palpa - Sentido Provincia\/Gral Paz", "Observac": null }, "geometry": { "type": "Point", "coordinates": [ -58.446763001793641, -34.568991991547236 ] } },
{ "type": "Feature", "properties": { "ID": 174, "NOMBRE": "Olleros", "CALLE1": "CABILDO AV", "CALLE2": null, "INTERSEC": "Entre Olleros y Av Federizo Lacroze", "LIN_SENT_N": "68 - 161", "LIN_SENT_S": null, "METROBUS": "Metrobus Norte - Av Cabildo", "NOM_SENTID": "Olleros - Sentido Provincia\/Gral Paz", "Observac": null }, "geometry": { "type": "Point", "coordinates": [ -58.444495600711811, -34.570100787238125 ] } },
{ "type": "Feature", "properties": { "ID": 176, "NOMBRE": "Maure", "CALLE1": "CABILDO AV", "CALLE2": null, "INTERSEC": "Entre Maure y Gorostiaga", "LIN_SENT_N": null, "LIN_SENT_S": "57 - 194", "METROBUS": "Metrobus Norte - Av Cabildo", "NOM_SENTID": "Maure - Sentido CABA\/Pacífico", "Observac": null }, "geometry": { "type": "Point", "coordinates": [ -58.44224029915835, -34.571330536715244 ] } },
{ "type": "Feature", "properties": { "ID": 178, "NOMBRE": "Matienzo", "CALLE1": "CABILDO AV", "CALLE2": null, "INTERSEC": "Entre Benjamín Matienzo y Jorge Newbery", "LIN_SENT_N": "57 - 194", "LIN_SENT_S": null, "METROBUS": "Metrobus Norte - Av Cabildo", "NOM_SENTID": "Matienzo - Sentido Provincia\/Gral Paz", "Observac": null }, "geometry": { "type": "Point", "coordinates": [ -58.440253160904859, -34.572338471425105 ] } },
{ "type": "Feature", "properties": { "ID": 184, "NOMBRE": "Thames", "CALLE1": "SANTA FE AV", "CALLE2": null, "INTERSEC": "Entre Uriarte y Thames", "LIN_SENT_N": null, "LIN_SENT_S": "55 - 160", "METROBUS": "Centro de Transbordo Pacífico", "NOM_SENTID": "Thames - Sentido Ciudad de Buenos Aires", "Observac": null }, "geometry": { "type": "Point", "coordinates": [ -58.422226371093245, -34.580671751586749 ] } },
{ "type": "Feature", "properties": { "ID": 189, "NOMBRE": "Juan B. Justo", "CALLE1": "SANTA FE AV", "CALLE2": null, "INTERSEC": "Entre Av Juan B Justo y Humboldt", "LIN_SENT_N": null, "LIN_SENT_S": "64 - 68 - 161", "METROBUS": "Centro de Transbordo Pacífico", "NOM_SENTID": "Juan B. Justo - Sentido Ciudad de Buenos Aires", "Observac": null }, "geometry": { "type": "Point", "coordinates": [ -58.427027956910194, -34.577992134594233 ] } },
{ "type": "Feature", "properties": { "ID": 193, "NOMBRE": "Teodoro García", "CALLE1": "CABILDO AV", "CALLE2": null, "INTERSEC": "Entre Teodoro García y Palpa", "LIN_SENT_N": "41 - 63 - 67", "LIN_SENT_S": null, "METROBUS": "Metrobus Norte - Av Cabildo", "NOM_SENTID": "Teodoro García - Sentido Provincia\/Gral Paz", "Observac": null }, "geometry": { "type": "Point", "coordinates": [ -58.44638013334847, -34.569179597368098 ] } },
{ "type": "Feature", "properties": { "ID": 194, "NOMBRE": "México", "CALLE1": "PASEO COLON AV.", "CALLE2": null, "INTERSEC": "Entre México y Rep. Bolivariana de Venezuela", "LIN_SENT_N": null, "LIN_SENT_S": "33 - 143 - 159", "METROBUS": "Metrobus del Bajo", "NOM_SENTID": "México - Sentido Sur", "Observac": null }, "geometry": { "type": "Point", "coordinates": [ -58.369319067359413, -34.614190013419048 ] } },
{ "type": "Feature", "properties": { "ID": 195, "NOMBRE": "Chile", "CALLE1": "PASEO COLON AV.", "CALLE2": null, "INTERSEC": "Entre Chile y México", "LIN_SENT_N": null, "LIN_SENT_S": "8 - 74 - 86 - 93", "METROBUS": "Metrobus del Bajo", "NOM_SENTID": "Chile - Sentido Sur", "Observac": null }, "geometry": { "type": "Point", "coordinates": [ -58.369227818513359, -34.615282196622218 ] } },
{ "type": "Feature", "properties": { "ID": 196, "NOMBRE": "Av Independencia", "CALLE1": "PASEO COLON AV.", "CALLE2": null, "INTERSEC": "Entre Av Independencia y Chile", "LIN_SENT_N": null, "LIN_SENT_S": "61 - 64 - 130 - 152", "METROBUS": "Metrobus del Bajo", "NOM_SENTID": "Av Independencia - Sentido Sur", "Observac": null }, "geometry": { "type": "Point", "coordinates": [ -58.36924538986424, -34.616456517894278 ] } },
{ "type": "Feature", "properties": { "ID": 197, "NOMBRE": "Av Independencia", "CALLE1": "PASEO COLON AV.", "CALLE2": null, "INTERSEC": "Entre Av Independencia y Chile", "LIN_SENT_N": "29 - 62 - 152", "LIN_SENT_S": null, "METROBUS": "Metrobus del Bajo", "NOM_SENTID": "Av Independencia - Sentido Norte", "Observac": null }, "geometry": { "type": "Point", "coordinates": [ -58.369004631355345, -34.616438236932701 ] } },
{ "type": "Feature", "properties": { "ID": 198, "NOMBRE": "Chile", "CALLE1": "PASEO COLON AV.", "CALLE2": null, "INTERSEC": "Entre Chile y México", "LIN_SENT_N": "33 - 64 - 130 -143", "LIN_SENT_S": null, "METROBUS": "Metrobus del Bajo", "NOM_SENTID": "Chile - Sentido Norte", "Observac": null }, "geometry": { "type": "Point", "coordinates": [ -58.369104426701135, -34.615284674863176 ] } },
{ "type": "Feature", "properties": { "ID": 199, "NOMBRE": "México", "CALLE1": "PASEO COLON AV.", "CALLE2": null, "INTERSEC": "Entre México y Rep. Bolivariana de Venezuela", "LIN_SENT_N": "74 - 93 - 159", "LIN_SENT_S": null, "METROBUS": "Metrobus del Bajo", "NOM_SENTID": "México - Sentido Norte", "Observac": null }, "geometry": { "type": "Point", "coordinates": [ -58.369176797892436, -34.61418538036537 ] } },
{ "type": "Feature", "properties": { "ID": 200, "NOMBRE": "Av Belgrano", "CALLE1": "PASEO COLON AV.", "CALLE2": null, "INTERSEC": "Entre Av Belgrano y Moreno", "LIN_SENT_N": null, "LIN_SENT_S": "61 - 64 - 93 - 111 - 130 - 152", "METROBUS": "Metrobus del Bajo", "NOM_SENTID": "Av Belgrano - Sentido Sur", "Observac": null }, "geometry": { "type": "Point", "coordinates": [ -58.369464053066935, -34.61176521990059 ] } },
{ "type": "Feature", "properties": { "ID": 201, "NOMBRE": "Moreno", "CALLE1": "PASEO COLON AV.", "CALLE2": null, "INTERSEC": "Entre Moreno y Adolfo Alsina", "LIN_SENT_N": null, "LIN_SENT_S": "8 - 33 - 74 - 86 - 143 - 159", "METROBUS": "Metrobus del Bajo", "NOM_SENTID": "Moreno - Sentido Sur", "Observac": null }, "geometry": { "type": "Point", "coordinates": [ -58.369487275739409, -34.610570881388306 ] } },
{ "type": "Feature", "properties": { "ID": 202, "NOMBRE": "Alsina", "CALLE1": "PASEO COLON AV.", "CALLE2": null, "INTERSEC": "Entre Adolfo Alsina e Hipólito Yrigoyen", "LIN_SENT_N": null, "LIN_SENT_S": "195", "METROBUS": "Metrobus del Bajo", "NOM_SENTID": "Alsina - Sentido Sur", "Observac": null }, "geometry": { "type": "Point", "coordinates": [ -58.369520986380607, -34.609783717659369 ] } },
{ "type": "Feature", "properties": { "ID": 203, "NOMBRE": "Alsina", "CALLE1": "PASEO COLON AV.", "CALLE2": null, "INTERSEC": "Entre Adolfo Alsina e Hipólito Yrigoyen", "LIN_SENT_N": "195", "LIN_SENT_S": null, "METROBUS": "Metrobus del Bajo", "NOM_SENTID": "Alsina - Sentido Norte", "Observac": null }, "geometry": { "type": "Point", "coordinates": [ -58.369422503944421, -34.609774594250801 ] } },
{ "type": "Feature", "properties": { "ID": 204, "NOMBRE": "Moreno", "CALLE1": "PASEO COLON AV.", "CALLE2": null, "INTERSEC": "Entre Moreno y Adolfo Alsina", "LIN_SENT_N": "29 - 64 - 74 - 93 - 159", "LIN_SENT_S": null, "METROBUS": "Metrobus del Bajo", "NOM_SENTID": "Moreno - Sentido Norte", "Observac": null }, "geometry": { "type": "Point", "coordinates": [ -58.369388782254298, -34.610570806098806 ] } },
{ "type": "Feature", "properties": { "ID": 205, "NOMBRE": "Av Belgrano", "CALLE1": "PASEO COLON AV.", "CALLE2": null, "INTERSEC": "Entre Av Belgrano y Moreno", "LIN_SENT_N": "33 - 62 - 130 - 143 - 152", "LIN_SENT_S": null, "METROBUS": "Metrobus del Bajo", "NOM_SENTID": "Av Belgrano - Sentido Norte", "Observac": null }, "geometry": { "type": "Point", "coordinates": [ -58.369321792793428, -34.611756062948402 ] } },
{ "type": "Feature", "properties": { "ID": 206, "NOMBRE": "Perón", "CALLE1": "ALEM LEANDRO N. AV.", "CALLE2": null, "INTERSEC": "Entre Perón Juan D y Sarmiento", "LIN_SENT_N": "7 - 22 - 28 - 33 - 126 - 143", "LIN_SENT_S": null, "METROBUS": "Metrobus del Bajo", "NOM_SENTID": "Perón - Sentido Norte", "Observac": null }, "geometry": { "type": "Point", "coordinates": [ -58.370062816092606, -34.604748829610308 ] } },
{ "type": "Feature", "properties": { "ID": 207, "NOMBRE": "Sarmiento", "CALLE1": "ALEM LEANDRO N. AV.", "CALLE2": null, "INTERSEC": "Entre Sarmiento y Av Corrientes", "LIN_SENT_N": "56 - 62 - 91 - 93 - 130 - 152", "LIN_SENT_S": null, "METROBUS": "Metrobus del Bajo", "NOM_SENTID": "Sarmiento - Sentido Norte", "Observac": null }, "geometry": { "type": "Point", "coordinates": [ -58.370146102979106, -34.603654064988582 ] } },
{ "type": "Feature", "properties": { "ID": 208, "NOMBRE": "Sarmiento", "CALLE1": "ALEM LEANDRO N. AV.", "CALLE2": null, "INTERSEC": "Entre Sarmiento y Av Corrientes", "LIN_SENT_N": null, "LIN_SENT_S": "22 - 28 - 50 - 56 - 91 - 126", "METROBUS": "Metrobus del Bajo", "NOM_SENTID": "Sarmiento - Sentido Sur", "Observac": null }, "geometry": { "type": "Point", "coordinates": [ -58.370271935307699, -34.603663208537029 ] } },
{ "type": "Feature", "properties": { "ID": 209, "NOMBRE": "Lavalle", "CALLE1": "ALEM LEANDRO N. AV.", "CALLE2": null, "INTERSEC": "Entre Lavalle y Tucumán", "LIN_SENT_N": null, "LIN_SENT_S": "7 - 33 - 143 - 195", "METROBUS": "Metrobus del Bajo", "NOM_SENTID": "Lavalle - Sentido Sur", "Observac": null }, "geometry": { "type": "Point", "coordinates": [ -58.370471486761964, -34.601328932598371 ] } },
{ "type": "Feature", "properties": { "ID": 210, "NOMBRE": "Av Corrientes", "CALLE1": "ALEM LEANDRO N. AV.", "CALLE2": null, "INTERSEC": "Entre Av Corrientes y Lavalle", "LIN_SENT_N": null, "LIN_SENT_S": "61 - 93 - 130 - 152", "METROBUS": "Metrobus del Bajo", "NOM_SENTID": "Av Corrientes - Sentido Sur", "Observac": null }, "geometry": { "type": "Point", "coordinates": [ -58.370377223833025, -34.602459882226903 ] } },
{ "type": "Feature", "properties": { "ID": 211, "NOMBRE": "Av Córdoba", "CALLE1": "ALEM LEANDRO N. AV.", "CALLE2": null, "INTERSEC": "Entre Av Córdoba y Paraguay", "LIN_SENT_N": "7 - 22 - 33 - 62 - 143 - 152", "LIN_SENT_S": null, "METROBUS": "Metrobus del Bajo", "NOM_SENTID": "Av Córdoba - Sentido Norte", "Observac": null }, "geometry": { "type": "Point", "coordinates": [ -58.371555801825224, -34.597553863341091 ] } },
{ "type": "Feature", "properties": { "ID": 212, "NOMBRE": "Av Córdoba", "CALLE1": "ALEM LEANDRO N. AV.", "CALLE2": null, "INTERSEC": "Entre Av Córdoba y Paraguay", "LIN_SENT_N": null, "LIN_SENT_S": "22 - 28 - 50 - 56 - 61 - 126 - 152", "METROBUS": "Metrobus del Bajo", "NOM_SENTID": "Av Córdoba - Sentido Sur", "Observac": null }, "geometry": { "type": "Point", "coordinates": [ -58.371644429899604, -34.597583255436135 ] } },
{ "type": "Feature", "properties": { "ID": 213, "NOMBRE": "Tucumán", "CALLE1": "ALEM LEANDRO N. AV.", "CALLE2": null, "INTERSEC": "Entre Tucumán y Viamonte", "LIN_SENT_N": "6 - 26 - 50 - 195", "LIN_SENT_S": null, "METROBUS": "Metrobus del Bajo", "NOM_SENTID": "Tucumán - Sentido Norte", "Observac": null }, "geometry": { "type": "Point", "coordinates": [ -58.370604155224633, -34.600098481808615 ] } },
{ "type": "Feature", "properties": { "ID": 214, "NOMBRE": "Viamonte", "CALLE1": "ALEM LEANDRO N. AV.", "CALLE2": null, "INTERSEC": "Entre Viamonte y Av Córdoba", "LIN_SENT_N": "23 - 93 - 115 - 130", "LIN_SENT_S": null, "METROBUS": "Metrobus del Bajo", "NOM_SENTID": "Viamonte - Sentido Norte", "Observac": null }, "geometry": { "type": "Point", "coordinates": [ -58.370889885880949, -34.59898124802929 ] } },
{ "type": "Feature", "properties": { "ID": 215, "NOMBRE": "Ricardo Rojas", "CALLE1": "ALEM LEANDRO N. AV.", "CALLE2": null, "INTERSEC": "Entre Ricardo Rojas y San Martín", "LIN_SENT_N": null, "LIN_SENT_S": "7 - 33 - 143", "METROBUS": "Metrobus del Bajo", "NOM_SENTID": "Ricardo Rojas - Sentido Sur", "Observac": null }, "geometry": { "type": "Point", "coordinates": [ -58.373033680426829, -34.594707579474658 ] } },
{ "type": "Feature", "properties": { "ID": 216, "NOMBRE": "Marcelo T. de Alvear", "CALLE1": "ALEM LEANDRO N. AV.", "CALLE2": null, "INTERSEC": "Entre Marcelo T. de Alvear y Ricardo Rojas", "LIN_SENT_N": null, "LIN_SENT_S": "5 - 9- 45 - 91 - 93 - 130", "METROBUS": "Metrobus del Bajo", "NOM_SENTID": "Marcelo T. de Alvear - Sentido Sur", "Observac": null }, "geometry": { "type": "Point", "coordinates": [ -58.372622519175906, -34.595494468116748 ] } },
{ "type": "Feature", "properties": { "ID": 217, "NOMBRE": "Paraguay", "CALLE1": "ALEM LEANDRO N. AV.", "CALLE2": null, "INTERSEC": "Entre Paraguay y Marcelo T. de Alvear", "LIN_SENT_N": null, "LIN_SENT_S": "6 - 23 - 26 -115 - 132", "METROBUS": "Metrobus del Bajo", "NOM_SENTID": "Paraguay - Sentido Sur", "Observac": null }, "geometry": { "type": "Point", "coordinates": [ -58.372074154513655, -34.596670324993156 ] } },
{ "type": "Feature", "properties": { "ID": 218, "NOMBRE": "Paraguay", "CALLE1": "ALEM LEANDRO N. AV.", "CALLE2": null, "INTERSEC": "Entre Paraguay y Marcelo T. de Alvear", "LIN_SENT_N": "28 - 56 - 91 - 126 - 132", "LIN_SENT_S": null, "METROBUS": "Metrobus del Bajo", "NOM_SENTID": "Paraguay - Sentido Norte", "Observac": null }, "geometry": { "type": "Point", "coordinates": [ -58.371964769969857, -34.596638575094374 ] } },
{ "type": "Feature", "properties": { "ID": 338, "NOMBRE": "Ctro. Transbordo Liniers", "CALLE1": "RIVADAVIA AV.", "CALLE2": null, "INTERSEC": "Entre Montiel y Carhué", "LIN_SENT_N": "Sentido Oeste: 8 - 47", "LIN_SENT_S": null, "METROBUS": "Centro de Transbordo Liniers", "NOM_SENTID": "Ctro. Transbordo Liniers - Sentido Provincia de Buenos Aires", "Observac": null }, "geometry": { "type": "Point", "coordinates": [ -58.525581971948533, -34.639054966475932 ] } },
{ "type": "Feature", "properties": { "ID": 339, "NOMBRE": "Ctro. Transbordo Liniers", "CALLE1": "RIVADAVIA AV.", "CALLE2": null, "INTERSEC": "Entre Carhué y Cosquín", "LIN_SENT_N": "Sentido Oeste: 80 - 117", "LIN_SENT_S": null, "METROBUS": "Centro de Transbordo Liniers", "NOM_SENTID": "Ctro. Transbordo Liniers - Sentido Provincia de Buenos Aires", "Observac": null }, "geometry": { "type": "Point", "coordinates": [ -58.524659392925876, -34.638982124324428 ] } },
{ "type": "Feature", "properties": { "ID": 340, "NOMBRE": "Ctro. Transbordo Liniers", "CALLE1": "RIVADAVIA AV.", "CALLE2": null, "INTERSEC": "Entre Carhué y Cosquín", "LIN_SENT_N": "Sentido Oeste: 46 - 174 - 185", "LIN_SENT_S": null, "METROBUS": "Centro de Transbordo Liniers", "NOM_SENTID": "Ctro. Transbordo Liniers - Sentido Provincia de Buenos Aires", "Observac": null }, "geometry": { "type": "Point", "coordinates": [ -58.524186271382874, -34.63893837516239 ] } },
{ "type": "Feature", "properties": { "ID": 341, "NOMBRE": "Ctro. Transbordo Liniers", "CALLE1": "RIVADAVIA AV.", "CALLE2": null, "INTERSEC": "Entre Carhué y Cosquín", "LIN_SENT_N": null, "LIN_SENT_S": "Sentido Este: 136 - 153 - 163", "METROBUS": "Centro de Transbordo Liniers", "NOM_SENTID": "Ctro. Transbordo Liniers - Sentido Ciudad de Buenos Aires", "Observac": null }, "geometry": { "type": "Point", "coordinates": [ -58.524174491046679, -34.639001920197181 ] } },
{ "type": "Feature", "properties": { "ID": 342, "NOMBRE": "Ctro. Transbordo Liniers", "CALLE1": "RIVADAVIA AV.", "CALLE2": null, "INTERSEC": "Entre Carhué y Cosquín", "LIN_SENT_N": null, "LIN_SENT_S": "Sentido Este: 47 - 80", "METROBUS": "Centro de Transbordo Liniers", "NOM_SENTID": "Ctro. Transbordo Liniers - Sentido Ciudad de Buenos Aires", "Observac": null }, "geometry": { "type": "Point", "coordinates": [ -58.524653522927835, -34.639040778779325 ] } },
{ "type": "Feature", "properties": { "ID": 343, "NOMBRE": "Ctro. Transbordo Liniers", "CALLE1": "RIVADAVIA AV.", "CALLE2": null, "INTERSEC": "Entre Montiel y Carhué", "LIN_SENT_N": null, "LIN_SENT_S": "Sentido Este: 4 - 117", "METROBUS": "Centro de Transbordo Liniers", "NOM_SENTID": "Ctro. Transbordo Liniers - Sentido Ciudad de Buenos Aires", "Observac": null }, "geometry": { "type": "Point", "coordinates": [ -58.525576102595039, -34.639113620973838 ] } },
{ "type": "Feature", "properties": { "ID": 344, "NOMBRE": "Ctro. Transbordo Liniers", "CALLE1": "RIVADAVIA AV.", "CALLE2": null, "INTERSEC": "Entre Montiel y Carhué", "LIN_SENT_N": null, "LIN_SENT_S": "Sentido Este: 1 - 2 - 46", "METROBUS": "Centro de Transbordo Liniers", "NOM_SENTID": "Ctro. Transbordo Liniers - Sentido Ciudad de Buenos Aires", "Observac": null }, "geometry": { "type": "Point", "coordinates": [ -58.52599599208294, -34.639142729512898 ] } },
{ "type": "Feature", "properties": { "ID": 345, "NOMBRE": "Ctro. Transbordo Liniers", "CALLE1": "RIVADAVIA AV.", "CALLE2": null, "INTERSEC": "Entre José León Suárez y Montiel", "LIN_SENT_N": null, "LIN_SENT_S": "Sentido Este: 174 - 182 - 185", "METROBUS": "Centro de Transbordo Liniers", "NOM_SENTID": "Ctro. Transbordo Liniers - Sentido Ciudad de Buenos Aires", "Observac": null }, "geometry": { "type": "Point", "coordinates": [ -58.526859437739141, -34.639215592672691 ] } },
{ "type": "Feature", "properties": { "ID": 346, "NOMBRE": "Ctro. Transbordo Liniers", "CALLE1": "RIVADAVIA AV.", "CALLE2": null, "INTERSEC": "Entre José León Suárez y Montiel", "LIN_SENT_N": null, "LIN_SENT_S": "Sentido Este: 8 - 88 - 96", "METROBUS": "Centro de Transbordo Liniers", "NOM_SENTID": "Ctro. Transbordo Liniers - Sentido Ciudad de Buenos Aires", "Observac": null }, "geometry": { "type": "Point", "coordinates": [ -58.527273418338829, -34.639249587543524 ] } },
{ "type": "Feature", "properties": { "ID": 347, "NOMBRE": "Ctro. Transbordo Liniers", "CALLE1": "RIVADAVIA AV.", "CALLE2": null, "INTERSEC": "Entre José León Suárez y Montiel", "LIN_SENT_N": "Sentido Oeste: 2 - 4 - 182", "LIN_SENT_S": null, "METROBUS": "Centro de Transbordo Liniers", "NOM_SENTID": "Ctro. Transbordo Liniers - Sentido Provincia de Buenos Aires", "Observac": null }, "geometry": { "type": "Point", "coordinates": [ -58.527279286506655, -34.639190932966578 ] } },
{ "type": "Feature", "properties": { "ID": 348, "NOMBRE": "Ctro. Transbordo Liniers", "CALLE1": "RIVADAVIA AV.", "CALLE2": null, "INTERSEC": "Entre José León Suárez y Montiel", "LIN_SENT_N": "Sentido Oeste: 136 - 153 - 163", "LIN_SENT_S": null, "METROBUS": "Centro de Transbordo Liniers", "NOM_SENTID": "Ctro. Transbordo Liniers - Sentido Provincia de Buenos Aires", "Observac": null }, "geometry": { "type": "Point", "coordinates": [ -58.526865306196086, -34.639156938114994 ] } },
{ "type": "Feature", "properties": { "ID": 349, "NOMBRE": "Ctro. Transbordo Liniers", "CALLE1": "RIVADAVIA AV.", "CALLE2": null, "INTERSEC": "Entre Montiel y Carhué", "LIN_SENT_N": "Sentido Oeste: 1 - 88 - 96", "LIN_SENT_S": null, "METROBUS": "Centro de Transbordo Liniers", "NOM_SENTID": "Ctro. Transbordo Liniers - Sentido Provincia de Buenos Aires", "Observac": null }, "geometry": { "type": "Point", "coordinates": [ -58.526001861142802, -34.639084074995395 ] } },
{ "type": "Feature", "properties": { "ID": 370, "NOMBRE": "Guatemala", "CALLE1": "JUSTO JUAN B.", "CALLE2": "GUATEMALA", "INTERSEC": "JUSTO JUAN B. & GUATEMALA", "LIN_SENT_N": "166", "LIN_SENT_S": null, "METROBUS": "Metrobus Juan B. Justo", "NOM_SENTID": "Guatemala - Sentido Pacífico", "Observac": null }, "geometry": { "type": "Point", "coordinates": [ -58.430305423891149, -34.582123193872178 ] } },
{ "type": "Feature", "properties": { "ID": 369, "NOMBRE": "Honduras", "CALLE1": "JUSTO JUAN B.", "CALLE2": "HONDURAS", "INTERSEC": "JUSTO JUAN B. & HONDURAS", "LIN_SENT_N": "166", "LIN_SENT_S": null, "METROBUS": "Metrobus Juan B. Justo", "NOM_SENTID": "Honduras - Sentido Pacífico", "Observac": null }, "geometry": { "type": "Point", "coordinates": [ -58.434870006849309, -34.585490787151556 ] } },
{ "type": "Feature", "properties": { "ID": 368, "NOMBRE": "Aguirre", "CALLE1": "JUSTO JUAN B.", "CALLE2": "AGUIRRE", "INTERSEC": "JUSTO JUAN B. & AGUIRRE", "LIN_SENT_N": "34 - 166", "LIN_SENT_S": null, "METROBUS": "Metrobus Juan B. Justo", "NOM_SENTID": "Aguirre - Sentido Pacífico", "Observac": null }, "geometry": { "type": "Point", "coordinates": [ -58.440858737500392, -34.592408802934152 ] } },
{ "type": "Feature", "properties": { "ID": 367, "NOMBRE": "Av. Corrientes", "CALLE1": "JUSTO JUAN B.", "CALLE2": "CORRIENTES", "INTERSEC": "JUSTO JUAN B. & CORRIENTES", "LIN_SENT_N": "34 - 166", "LIN_SENT_S": null, "METROBUS": "Metrobus Juan B. Justo", "NOM_SENTID": "Av. Corrientes - Sentido Pacífico", "Observac": null }, "geometry": { "type": "Point", "coordinates": [ -58.444476260484848, -34.594910005892601 ] } },
{ "type": "Feature", "properties": { "ID": 366, "NOMBRE": "Murillo", "CALLE1": "JUSTO JUAN B.", "CALLE2": "MURILLO", "INTERSEC": "JUSTO JUAN B. & MURILLO", "LIN_SENT_N": "34 - 166", "LIN_SENT_S": null, "METROBUS": "Metrobus Juan B. Justo", "NOM_SENTID": "Murillo - Sentido Pacífico", "Observac": null }, "geometry": { "type": "Point", "coordinates": [ -58.447811041694806, -34.597210482949528 ] } },
{ "type": "Feature", "properties": { "ID": 365, "NOMBRE": "Av. Honorio Pueyrredón", "CALLE1": "JUSTO JUAN B.", "CALLE2": "PUEYRREDON HONORIO DR.", "INTERSEC": "JUSTO JUAN B. & PUEYRREDON HONORIO DR.", "LIN_SENT_N": "34 - 109 - 166", "LIN_SENT_S": null, "METROBUS": "Metrobus Juan B. Justo", "NOM_SENTID": "Av. Honorio Pueyrredón - Sentido Pacífico", "Observac": null }, "geometry": { "type": "Point", "coordinates": [ -58.452281956577608, -34.60030661787102 ] } },
{ "type": "Feature", "properties": { "ID": 364, "NOMBRE": "Av. San Martín", "CALLE1": "JUSTO JUAN B.", "CALLE2": "SAN MARTIN AV.", "INTERSEC": "JUSTO JUAN B. & SAN MARTIN AV.", "LIN_SENT_N": "34 - 109 - 110 - 166", "LIN_SENT_S": null, "METROBUS": "Metrobus Juan B. Justo", "NOM_SENTID": "Av. San Martín - Sentido Pacífico", "Observac": null }, "geometry": { "type": "Point", "coordinates": [ -58.458705943745507, -34.604686399998727 ] } },
{ "type": "Feature", "properties": { "ID": 363, "NOMBRE": "Av. Donato Alvarez", "CALLE1": "JUSTO JUAN B.", "CALLE2": "ALVAREZ DONATO Tte. Gral.", "INTERSEC": "JUSTO JUAN B. & ALVAREZ DONATO Tte. Gral.", "LIN_SENT_N": "34 - 110 - 166", "LIN_SENT_S": null, "METROBUS": "Metrobus Juan B. Justo", "NOM_SENTID": "Av. Donato Alvarez - Sentido Pacífico", "Observac": null }, "geometry": { "type": "Point", "coordinates": [ -58.462926979636215, -34.607551462055405 ] } },
{ "type": "Feature", "properties": { "ID": 362, "NOMBRE": "Boyaca", "CALLE1": "JUSTO JUAN B.", "CALLE2": "BOYACA", "INTERSEC": "JUSTO JUAN B. & BOYACA", "LIN_SENT_N": "34 - 110 - 166", "LIN_SENT_S": null, "METROBUS": "Metrobus Juan B. Justo", "NOM_SENTID": "Boyaca - Sentido Pacífico", "Observac": null }, "geometry": { "type": "Point", "coordinates": [ -58.46799748491447, -34.611419258083004 ] } },
{ "type": "Feature", "properties": { "ID": 11, "NOMBRE": "Artigas", "CALLE1": "JUSTO JUAN B.", "CALLE2": "ARTIGAS JOSE GERVASIO GRAL", "INTERSEC": "JUSTO JUAN B. & ARTIGAS JOSE GERVASIO GRAL", "LIN_SENT_N": null, "LIN_SENT_S": "34 - 166", "METROBUS": "Metrobus Juan B. Justo", "NOM_SENTID": "Artigas - Sentido Liniers", "Observac": null }, "geometry": { "type": "Point", "coordinates": [ -58.472910696986858, -34.614785396871639 ] } },
{ "type": "Feature", "properties": { "ID": 360, "NOMBRE": "Av. Nazca", "CALLE1": "JUSTO JUAN B.", "CALLE2": "NAZCA", "INTERSEC": "JUSTO JUAN B. & NAZCA", "LIN_SENT_N": "34 - 166", "LIN_SENT_S": null, "METROBUS": "Metrobus Juan B. Justo", "NOM_SENTID": "Av. Nazca - Sentido Pacífico", "Observac": null }, "geometry": { "type": "Point", "coordinates": [ -58.47624321422979, -34.618322017009895 ] } },
{ "type": "Feature", "properties": { "ID": 9, "NOMBRE": "Concordia", "CALLE1": "JUSTO JUAN B.", "CALLE2": "CONCORDIA", "INTERSEC": "JUSTO JUAN B. & CONCORDIA", "LIN_SENT_N": null, "LIN_SENT_S": "34 - 166", "METROBUS": "Metrobus Juan B. Justo", "NOM_SENTID": "Concordia - Sentido Liniers", "Observac": null }, "geometry": { "type": "Point", "coordinates": [ -58.480657517665342, -34.621920347285368 ] } },
{ "type": "Feature", "properties": { "ID": 8, "NOMBRE": "Chivilcoy", "CALLE1": "JUSTO JUAN B.", "CALLE2": "CHIVILCOY", "INTERSEC": "JUSTO JUAN B. & CHIVILCOY", "LIN_SENT_N": null, "LIN_SENT_S": "34 - 166", "METROBUS": "Metrobus Juan B. Justo", "NOM_SENTID": "Chivilcoy - Sentido Liniers", "Observac": null }, "geometry": { "type": "Point", "coordinates": [ -58.485732805931292, -34.625052065838439 ] } },
{ "type": "Feature", "properties": { "ID": 357, "NOMBRE": "Av. Segurola", "CALLE1": "JUSTO JUAN B.", "CALLE2": "SEGUROLA", "INTERSEC": "JUSTO JUAN B. & SEGUROLA", "LIN_SENT_N": "34 - 166", "LIN_SENT_S": null, "METROBUS": "Metrobus Juan B. Justo", "NOM_SENTID": "Av. Segurola - Sentido Pacífico", "Observac": null }, "geometry": { "type": "Point", "coordinates": [ -58.491220331547673, -34.627121151233254 ] } },
{ "type": "Feature", "properties": { "ID": 6, "NOMBRE": "Carrasco", "CALLE1": "JUSTO JUAN B.", "CALLE2": "CARRASCO", "INTERSEC": "JUSTO JUAN B. & CARRASCO", "LIN_SENT_N": null, "LIN_SENT_S": "34 - 99 - 166 - 172", "METROBUS": "Metrobus Juan B. Justo", "NOM_SENTID": "Carrasco - Sentido Liniers", "Observac": null }, "geometry": { "type": "Point", "coordinates": [ -58.494744096669393, -34.629439637173149 ] } },
{ "type": "Feature", "properties": { "ID": 352, "NOMBRE": "Cortina", "CALLE1": "JUSTO JUAN B.", "CALLE2": "CORTINA", "INTERSEC": "JUSTO JUAN B. & CORTINA", "LIN_SENT_N": "34 - 99 - 166 - 172", "LIN_SENT_S": null, "METROBUS": "Metrobus Juan B. Justo", "NOM_SENTID": "Cortina - Sentido Pacífico", "Observac": null }, "geometry": { "type": "Point", "coordinates": [ -58.506961091227261, -34.634411461787174 ] } },
{ "type": "Feature", "properties": { "ID": 3, "NOMBRE": "Polideportivo Velez Sarsfield", "CALLE1": "JUSTO JUAN B.", "CALLE2": "GARCIA JUAN AGUSTIN", "INTERSEC": "JUSTO JUAN B. & GARCIA JUAN AGUSTIN", "LIN_SENT_N": null, "LIN_SENT_S": "34 - 99 - 166 - 172", "METROBUS": "Metrobus Juan B. Justo", "NOM_SENTID": "Polideportivo Velez Sarsfield - Sentido Liniers", "Observac": null }, "geometry": { "type": "Point", "coordinates": [ -58.513662857856616, -34.633526068351415 ] } },
{ "type": "Feature", "properties": { "ID": 350, "NOMBRE": "Velez Sarsfield", "CALLE1": "JUSTO JUAN B.", "CALLE2": "ALVAREZ JONTE AV", "INTERSEC": "JUSTO JUAN B. & ALVAREZ JONTE AV", "LIN_SENT_N": "34 - 99 - 166 - 172", "LIN_SENT_S": null, "METROBUS": "Metrobus Juan B. Justo", "NOM_SENTID": "Velez Sarsfield - Sentido Pacífico", "Observac": null }, "geometry": { "type": "Point", "coordinates": [ -58.519484663990781, -34.63371820841629 ] } },
{ "type": "Feature", "properties": { "ID": 372, "NOMBRE": "Av. Lope de Vega", "CALLE1": "JUSTO JUAN B.", "CALLE2": "LOPE DE VEGA", "INTERSEC": "JUSTO JUAN B. & LOPE DE VEGA", "LIN_SENT_N": "34 - 99 - 166 - 172", "LIN_SENT_S": null, "METROBUS": "Metrobus Juan B. Justo", "NOM_SENTID": "Av. Lope de Vega - Sentido Pacífico", "Observac": null }, "geometry": { "type": "Point", "coordinates": [ -58.50143338082848, -34.632415508763039 ] } },
{ "type": "Feature", "properties": { "ID": 373, "NOMBRE": "Av. Lope de Vega", "CALLE1": "JUSTO JUAN B.", "CALLE2": "LOPE DE VEGA", "INTERSEC": "JUSTO JUAN B. & LOPE DE VEGA", "LIN_SENT_N": null, "LIN_SENT_S": "34 - 99 - 166 - 172", "METROBUS": "Metrobus Juan B. Justo", "NOM_SENTID": "Av. Lope de Vega - Sentido Liniers", "Observac": null }, "geometry": { "type": "Point", "coordinates": [ -58.500597158122417, -34.631988169425775 ] } },
{ "type": "Feature", "properties": { "ID": 377, "NOMBRE": "Uriarte", "CALLE1": "SANTA FE AV", "CALLE2": null, "INTERSEC": "Entre Uriarte y Darregueyra", "LIN_SENT_N": "12 - 95 - 108 - 111 - 118 - 194", "LIN_SENT_S": "59 - 60 - 93 - 108 - 118", "METROBUS": "Centro de Transbordo Pacífico", "NOM_SENTID": "Uriarte", "Observac": null }, "geometry": { "type": "Point", "coordinates": [ -58.422962466811128, -34.580127889851845 ] } },
{ "type": "Feature", "properties": { "ID": 374, "NOMBRE": "Oro", "CALLE1": "SANTA FE AV", "CALLE2": null, "INTERSEC": "Entre Fray Justo Santamaría de Oro y Godoy Cruz", "LIN_SENT_N": "59 - 68 - 152 - 161", "LIN_SENT_S": "39 - 152", "METROBUS": "Centro de Transbordo Pacífico", "NOM_SENTID": "Oro", "Observac": null }, "geometry": { "type": "Point", "coordinates": [ -58.424804809829254, -34.578937288402116 ] } },
{ "type": "Feature", "properties": { "ID": 376, "NOMBRE": "Darregueyra", "CALLE1": "SANTA FE AV", "CALLE2": null, "INTERSEC": "Entre Darregueyra y Fray Justo Santamaría de Oro", "LIN_SENT_N": "29 - 39 - 41 - 64 - 67 - 93", "LIN_SENT_S": "12 - 15 - 29 - 95 - 111", "METROBUS": "Centro de Transbordo Pacífico", "NOM_SENTID": "Darregueyra", "Observac": null }, "geometry": { "type": "Point", "coordinates": [ -58.423849031893468, -34.579517309991118 ] } },
{ "type": "Feature", "properties": { "ID": 383, "NOMBRE": "Pacífico", "CALLE1": "BULLRICH INT AV", "CALLE2": "SANTA FE", "INTERSEC": "BULLRICH INT AV & SANTA FE", "LIN_SENT_N": "10 - 160 - 166", "LIN_SENT_S": "166", "METROBUS": "Metrobus Juan B. Justo", "NOM_SENTID": "Pacífico", "Observac": null }, "geometry": { "type": "Point", "coordinates": [ -58.426515354062609, -34.577583241440614 ] } },
{ "type": "Feature", "properties": { "ID": 177, "NOMBRE": "Jorge Newbery", "CALLE1": "CABILDO AV", "CALLE2": null, "INTERSEC": "Entre Jorge Newbery y Maure", "LIN_SENT_N": "41 - 60 - 67 - 68 - 152 - 161", "LIN_SENT_S": null, "METROBUS": "Metrobus Norte - Av Cabildo", "NOM_SENTID": "Jorge Newbery - Sentido Provincia\/Gral Paz", "Observac": null }, "geometry": { "type": "Point", "coordinates": [ -58.441251529774945, -34.571781151808636 ] } },
{ "type": "Feature", "properties": { "ID": 175, "NOMBRE": "Gorostiaga", "CALLE1": "CABILDO AV", "CALLE2": null, "INTERSEC": "Entre Gorostiaga y Olleros", "LIN_SENT_N": null, "LIN_SENT_S": "41 - 60 - 67 - 68 - 152 - 161", "METROBUS": "Metrobus Norte - Av Cabildo", "NOM_SENTID": "Gorostiaga - Sentido CABA\/Pacífico", "Observac": null }, "geometry": { "type": "Point", "coordinates": [ -58.44304489248249, -34.570927355292866 ] } },
{ "type": "Feature", "properties": { "ID": 434, "NOMBRE": "Manuela Pedraza", "CALLE1": "CABILDO AV", "CALLE2": null, "INTERSEC": "Entre Manuela Pedraza y Juana Azurduy", "LIN_SENT_N": null, "LIN_SENT_S": "59 - 60", "METROBUS": "Metrobus Norte - Av Cabildo", "NOM_SENTID": "Manuela Pedraza - Sentido CABA\/Pacífico", "Observac": null }, "geometry": { "type": "Point", "coordinates": [ -58.466243337035877, -34.551411092676823 ] } },
{ "type": "Feature", "properties": { "ID": 146, "NOMBRE": "Paroissien", "CALLE1": "CABILDO AV", "CALLE2": null, "INTERSEC": "Entre Av García del Río y Paroissien", "LIN_SENT_N": null, "LIN_SENT_S": "57 - 161 - 168 - 184 -194", "METROBUS": "Metrobus Norte - Av Cabildo", "NOM_SENTID": "Paroissien - Sentido CABA\/Pacífico", "Observac": null }, "geometry": { "type": "Point", "coordinates": [ -58.469646011420416, -34.547143385537247 ] } },
{ "type": "Feature", "properties": { "ID": 450, "NOMBRE": "Gral Paz", "CALLE1": "CABILDO AV", "CALLE2": "PAZ GRAL AV", "INTERSEC": "Entre Av Gral Paz y Vedia", "LIN_SENT_N": null, "LIN_SENT_S": "60 - 68 - 133 - 168", "METROBUS": "Metrobus Norte - Av Cabildo", "NOM_SENTID": "Gral Paz - Sentido CABA\/Pacífico", "Observac": null }, "geometry": { "type": "Point", "coordinates": [ -58.47539512702803, -34.539671686650578 ] } },
{ "type": "Feature", "properties": { "ID": 451, "NOMBRE": "Gral Paz", "CALLE1": "CABILDO AV", "CALLE2": "PAZ GRAL AV", "INTERSEC": "Entre Av Gral Paz y Vedia", "LIN_SENT_N": "19 - 21 - 60 - 71 - 161 - 168", "LIN_SENT_S": null, "METROBUS": "Metrobus Norte - Av Cabildo", "NOM_SENTID": "Gral Paz - Sentido Provincia\/Gral Paz", "Observac": null }, "geometry": { "type": "Point", "coordinates": [ -58.475224875628967, -34.539586935375041 ] } },
{ "type": "Feature", "properties": { "ID": 463, "NOMBRE": "Centro de Transbordo Once", "CALLE1": "MITRE BARTOLOME", "CALLE2": "PUEYRREDON AV", "INTERSEC": "MITRE BARTOLOME & PUEYRREDON AV", "LIN_SENT_N": null, "LIN_SENT_S": null, "METROBUS": "Centro de Transbordo Once", "NOM_SENTID": "Centro de Transbordo Once", "Observac": null }, "geometry": { "type": "Point", "coordinates": [ -58.407523487621354, -34.609128917670155 ] } },
{ "type": "Feature", "properties": { "ID": 462, "NOMBRE": "Centro de Transbordo Retiro", "CALLE1": "RAMOS MEJIA JOSE MARIA AV", "CALLE2": "DEL LIBERTADOR AV", "INTERSEC": "RAMOS MEJIA JOSE MARIA AV & DEL LIBERTADOR AV", "LIN_SENT_N": null, "LIN_SENT_S": null, "METROBUS": "Centro de Transbordo Retiro", "NOM_SENTID": "Centro de Transbordo Retiro", "Observac": null }, "geometry": { "type": "Point", "coordinates": [ -58.374661229956295, -34.591687241746442 ] } },
{ "type": "Feature", "properties": { "ID": 481, "NOMBRE": "Centro de Transbordo Chacarita", "CALLE1": "CORRIENTES AV", "CALLE2": "LACROZE FEDERICO AV", "INTERSEC": "Entre Av Federico Lacroze y Olleros", "LIN_SENT_N": null, "LIN_SENT_S": null, "METROBUS": "Centro de Transbordo Chacarita", "NOM_SENTID": "Centro de Transbordo Chacarita", "Observac": null }, "geometry": { "type": "Point", "coordinates": [ -58.4545590318601, -34.587372625796014 ] } },
{ "type": "Feature", "properties": { "ID": 482, "NOMBRE": "Fitz Roy", "CALLE1": "SANTA FE AV", "CALLE2": null, "INTERSEC": "Entre Fitz Roy y Bonpland", "LIN_SENT_N": "41 - 60 - 67 - 68 - 152 - 161", "LIN_SENT_S": null, "METROBUS": "Centro de Transbordo Pacífico", "NOM_SENTID": "Fitz Roy - Sentido Provincia\/Gral Paz", "Observac": null }, "geometry": { "type": "Point", "coordinates": [ -58.429758735550074, -34.577101312008324 ] } },
{ "type": "Feature", "properties": { "ID": 483, "NOMBRE": "Humboldt", "CALLE1": "SANTA FE AV", "CALLE2": null, "INTERSEC": "Entre Humboldt y Fitz Roy", "LIN_SENT_N": null, "LIN_SENT_S": "41 - 57 - 67 - 194", "METROBUS": "Centro de Transbordo Pacífico", "NOM_SENTID": "Humboldt - Sentido CABA\/Pacífico", "Observac": null }, "geometry": { "type": "Point", "coordinates": [ -58.428013234430907, -34.577668103259036 ] } },
{ "type": "Feature", "properties": { "ID": 484, "NOMBRE": "Piedrabuena", "CALLE1": "FERNANDEZ DE LA CRUZ AV", "CALLE2": null, "INTERSEC": "Entre Piedrabuena y Guaminí", "LIN_SENT_N": "36 - 143 - 150", "LIN_SENT_S": "36 - 143 - 150", "METROBUS": "Metrobus Sur - Ramal Fernández de la Cruz", "NOM_SENTID": "Piedrabuena", "Observac": null }, "geometry": { "type": "Point", "coordinates": [ -58.475767149586467, -34.687958524085325 ] } },
{ "type": "Feature", "properties": { "ID": 485, "NOMBRE": "Lisandro de la Torre", "CALLE1": "FERNANDEZ DE LA CRUZ AV", "CALLE2": null, "INTERSEC": "Fernández de la Cruz y Lisandro de la Torre", "LIN_SENT_N": "36 - 143", "LIN_SENT_S": "36 - 143", "METROBUS": "Metrobus Sur - Ramal Fernández de la Cruz", "NOM_SENTID": "Lisandro de la Torre", "Observac": null }, "geometry": { "type": "Point", "coordinates": [ -58.471076708243402, -34.683729816612548 ] } },
{ "type": "Feature", "properties": { "ID": 486, "NOMBRE": "Pola", "CALLE1": "FERNANDEZ DE LA CRUZ AV", "CALLE2": null, "INTERSEC": "Entre Founrouge y Larraya", "LIN_SENT_N": "101 - 114 - 143 - 150", "LIN_SENT_S": "101 - 114 - 143 - 150", "METROBUS": "Metrobus Sur - Ramal Fernández de la Cruz", "NOM_SENTID": "Pola", "Observac": null }, "geometry": { "type": "Point", "coordinates": [ -58.465549306976655, -34.678938294658671 ] } },
{ "type": "Feature", "properties": { "ID": 487, "NOMBRE": "Escalada", "CALLE1": "FERNANDEZ DE LA CRUZ AV", "CALLE2": null, "INTERSEC": "Entre Escalada y Pola", "LIN_SENT_N": "101 - 114 - 143 - 150", "LIN_SENT_S": "101 - 114 - 143 - 150", "METROBUS": "Metrobus Sur - Ramal Fernández de la Cruz", "NOM_SENTID": "Escalada", "Observac": null }, "geometry": { "type": "Point", "coordinates": [ -58.460586357960047, -34.674515482748838 ] } },
{ "type": "Feature", "properties": { "ID": 488, "NOMBRE": "Cecilia Grierson", "CALLE1": "FERNANDEZ DE LA CRUZ AV", "CALLE2": null, "INTERSEC": "Entre Lacarra y Escalada", "LIN_SENT_N": "101 - 143 -  150", "LIN_SENT_S": "101 - 143 -  150", "METROBUS": "Metrobus Sur - Ramal Fernández de la Cruz", "NOM_SENTID": "Cecilia Grierson", "Observac": null }, "geometry": { "type": "Point", "coordinates": [ -58.456824024163581, -34.67115788289189 ] } },
{ "type": "Feature", "properties": { "ID": 489, "NOMBRE": "Laguna", "CALLE1": "FERNANDEZ DE LA CRUZ AV", "CALLE2": null, "INTERSEC": "Entre Laguna y Lacarra", "LIN_SENT_N": "101 - 143 -  150", "LIN_SENT_S": "101 - 143 -  150", "METROBUS": "Metrobus Sur - Ramal Fernández de la Cruz", "NOM_SENTID": "Laguna", "Observac": null }, "geometry": { "type": "Point", "coordinates": [ -58.448325762115161, -34.663888178945797 ] } },
{ "type": "Feature", "properties": { "ID": 490, "NOMBRE": "Mariano Acosta", "CALLE1": "FERNANDEZ DE LA CRUZ AV", "CALLE2": null, "INTERSEC": "Av Mariano Acosta", "LIN_SENT_N": "101 - 143 -  150", "LIN_SENT_S": "101 - 143 -  150", "METROBUS": "Metrobus Sur - Ramal Fernández de la Cruz", "NOM_SENTID": "Mariano Acosta", "Observac": null }, "geometry": { "type": "Point", "coordinates": [ -58.445538348095837, -34.66176423606256 ] } },
{ "type": "Feature", "properties": { "ID": 491, "NOMBRE": "Lafuente", "CALLE1": "FERNANDEZ DE LA CRUZ AV", "CALLE2": null, "INTERSEC": "Entre San Pedrito y José Martí", "LIN_SENT_N": "23 - 76 - 101 - 143 - 150", "LIN_SENT_S": "23 - 76 - 101 - 143 -150", "METROBUS": "Metrobus Sur - Ramal Fernández de la Cruz", "NOM_SENTID": "Lafuente", "Observac": null }, "geometry": { "type": "Point", "coordinates": [ -58.442770942945856, -34.65957801478288 ] } },
{ "type": "Feature", "properties": { "ID": 492, "NOMBRE": "Varela", "CALLE1": "FERNANDEZ DE LA CRUZ AV", "CALLE2": null, "INTERSEC": "Entre Pedernera y Castañón", "LIN_SENT_N": "23 - 76 - 101 - 143 - 150", "LIN_SENT_S": "101 - 143 - 150", "METROBUS": "Metrobus Sur - Ramal Fernández de la Cruz", "NOM_SENTID": "Varela", "Observac": null }, "geometry": { "type": "Point", "coordinates": [ -58.438254944564854, -34.655664826125729 ] } },
{ "type": "Feature", "properties": { "ID": 493, "NOMBRE": "San Lorenzo", "CALLE1": "FERNANDEZ DE LA CRUZ AV", "CALLE2": null, "INTERSEC": "Entre Charrúa y Berg", "LIN_SENT_N": "46 - 101 - 143 - 150", "LIN_SENT_S": "46 - 101 - 143 - 150", "METROBUS": "Metrobus Sur - Ramal Fernández de la Cruz", "NOM_SENTID": "San Lorenzo", "Observac": null }, "geometry": { "type": "Point", "coordinates": [ -58.434506729354439, -34.653053756157753 ] } },
{ "type": "Feature", "properties": { "ID": 494, "NOMBRE": "Perito Moreno", "CALLE1": "FERNANDEZ DE LA CRUZ AV", "CALLE2": null, "INTERSEC": "Entre Mom y Erezcano", "LIN_SENT_N": "101 - 143 -150", "LIN_SENT_S": "46 - 101 - 143 - 150", "METROBUS": "Metrobus Sur - Ramal Fernández de la Cruz", "NOM_SENTID": "Perito Moreno", "Observac": null }, "geometry": { "type": "Point", "coordinates": [ -58.431024742264185, -34.650237738199372 ] } },
{ "type": "Feature", "properties": { "ID": 495, "NOMBRE": "Av La Plata", "CALLE1": "FERNANDEZ DE LA CRUZ AV", "CALLE2": null, "INTERSEC": "Entre Fournier y Riestra", "LIN_SENT_N": "23 - 101 - 143", "LIN_SENT_S": "23 - 101 - 143", "METROBUS": "Metrobus Sur - Ramal Fernández de la Cruz", "NOM_SENTID": "Av La Plata", "Observac": null }, "geometry": { "type": "Point", "coordinates": [ -58.424536860456641, -34.644199830697076 ] } },
{ "type": "Feature", "properties": { "ID": 496, "NOMBRE": "Constitución", "CALLE1": "JUAN DE GARAY AV", "CALLE2": "LIMA", "INTERSEC": "JUAN DE GARAY AV & LIMA", "LIN_SENT_N": null, "LIN_SENT_S": "4 - 143", "METROBUS": "Metrobus del Sur", "NOM_SENTID": "Constitución - Sentido Gral Paz", "Observac": null }, "geometry": { "type": "Point", "coordinates": [ -58.380850414697818, -34.626514758747007 ] } },
{ "type": "Feature", "properties": { "ID": 514, "NOMBRE": "Sáenz", "CALLE1": "RABANAL AV", "CALLE2": null, "INTERSEC": "Entre Sáenz y Del Barco Centenera", "LIN_SENT_N": "91 - 115", "LIN_SENT_S": "76 - 91 - 115", "METROBUS": "Metrobus Sur - Ramal Coronel Roca", "NOM_SENTID": "Sáenz", "Observac": null }, "geometry": { "type": "Point", "coordinates": [ -58.417391637623943, -34.655082214685862 ] } },
{ "type": "Feature", "properties": { "ID": 515, "NOMBRE": "Berg", "CALLE1": "RABANAL AV", "CALLE2": null, "INTERSEC": "Entre Berg y Rivera Indarte", "LIN_SENT_N": "76 - 91 - 115", "LIN_SENT_S": "76 - 91 - 115", "METROBUS": "Metrobus Sur - Ramal Coronel Roca", "NOM_SENTID": "Berg", "Observac": null }, "geometry": { "type": "Point", "coordinates": [ -58.429120888303707, -34.659824466419984 ] } },
{ "type": "Feature", "properties": { "ID": 516, "NOMBRE": "Varela", "CALLE1": "RABANAL AV", "CALLE2": null, "INTERSEC": "Entre Varela y Culpina", "LIN_SENT_N": "76 - 91 - 115", "LIN_SENT_S": "76 - 91 - 115", "METROBUS": "Metrobus Sur - Ramal Coronel Roca", "NOM_SENTID": "Varela", "Observac": null }, "geometry": { "type": "Point", "coordinates": [ -58.43356755080444, -34.661910252971637 ] } },
{ "type": "Feature", "properties": { "ID": 517, "NOMBRE": "Lafuente", "CALLE1": "RABANAL AV", "CALLE2": null, "INTERSEC": "Entre San Pedrito y José Martí", "LIN_SENT_N": "76 - 91 - 115", "LIN_SENT_S": "91 - 115", "METROBUS": "Metrobus Sur - Ramal Coronel Roca", "NOM_SENTID": "Lafuente", "Observac": null }, "geometry": { "type": "Point", "coordinates": [ -58.437488874757221, -34.66377861898529 ] } },
{ "type": "Feature", "properties": { "ID": 528, "NOMBRE": "Larrazábal", "CALLE1": "ROCA CNEL AV", "CALLE2": null, "INTERSEC": "Entre Pasaje Roca y Larrazábal", "LIN_SENT_N": "91 - 115", "LIN_SENT_S": "91 - 115", "METROBUS": "Metrobus Sur - Ramal Coronel Roca", "NOM_SENTID": "Larrazábal", "Observac": null }, "geometry": { "type": "Point", "coordinates": [ -58.455984441429671, -34.685132829490925 ] } },
{ "type": "Feature", "properties": { "ID": 531, "NOMBRE": "Regimiento Patricios", "CALLE1": "SANTA FE AV", "CALLE2": null, "INTERSEC": "Entre Humboldt y Av Bullrich", "LIN_SENT_N": "15 - 55 - 60", "LIN_SENT_S": null, "METROBUS": "Centro de Transbordo Pacífico", "NOM_SENTID": "Regimiento Patricios", "Observac": null }, "geometry": { "type": "Point", "coordinates": [ -58.427230942128148, -34.577623397650854 ] } },
{ "type": "Feature", "properties": { "ID": 629, "NOMBRE": "Bolivia", "CALLE1": "RIVADAVIA AV.", "CALLE2": null, "INTERSEC": "Entre Estado Plur. de Bolivia y Condarco", "LIN_SENT_N": "1 - 2 - 8 - 36 - 86 - 88 - 92 - 96 - 136 - 141 - 163", "LIN_SENT_S": null, "METROBUS": "Centro de Transbordo Flores - Roberto Arlt", "NOM_SENTID": "Bolivia - Sentido Provincia de Buenos Aires", "Observac": null }, "geometry": { "type": "Point", "coordinates": [ -58.466155602510796, -34.629776930496384 ] } },
{ "type": "Feature", "properties": { "ID": 630, "NOMBRE": "Artigas", "CALLE1": "RIVADAVIA AV.", "CALLE2": null, "INTERSEC": "Entre José de Artigas y Estado Plur. de Bolivia", "LIN_SENT_N": "5 - 25 - 49 - 53 - 55 - 76 - 85 - 113 - 132 - 133", "LIN_SENT_S": null, "METROBUS": "Centro de Transbordo Flores - Roberto Arlt", "NOM_SENTID": "Artigas - Sentido Provincia de Buenos Aires", "Observac": null }, "geometry": { "type": "Point", "coordinates": [ -58.464926209122311, -34.629448893192283 ] } },
{ "type": "Feature", "properties": { "ID": 631, "NOMBRE": "San Pedrito", "CALLE1": "RIVADAVIA AV.", "CALLE2": null, "INTERSEC": "Entre San Pedrito Av y Lafuente", "LIN_SENT_N": null, "LIN_SENT_S": "1 - 2 - 5 - 25 - 49 - 53 - 85 - 92", "METROBUS": "Centro de Transbordo Flores - Roberto Arlt", "NOM_SENTID": "San Pedrito - Sentido Ciudad de Buenos Aires", "Observac": null }, "geometry": { "type": "Point", "coordinates": [ -58.468962917360678, -34.630556975388735 ] } },
{ "type": "Feature", "properties": { "ID": 632, "NOMBRE": "Lafuente", "CALLE1": "RIVADAVIA AV.", "CALLE2": null, "INTERSEC": "Entre Lafuente y Culpina", "LIN_SENT_N": null, "LIN_SENT_S": "8 - 33 - 55 - 76 - 86 - 96 - 113 - 133 - 136 - 141 - 163", "METROBUS": "Centro de Transbordo Flores - Roberto Arlt", "NOM_SENTID": "Lafuente - Sentido Ciudad de Buenos Aires", "Observac": null }, "geometry": { "type": "Point", "coordinates": [ -58.467559255350409, -34.630200967863864 ] } },
{ "type": "Feature", "properties": { "ID": 633, "NOMBRE": "Av Córdoba", "CALLE1": "JUSTO JUAN B.", "CALLE2": "CORDOBA AV", "INTERSEC": "JUSTO JUAN B. &  CORDOBA  AV", "LIN_SENT_N": null, "LIN_SENT_S": "34 - 166", "METROBUS": "Metrobus Juan B. Justo", "NOM_SENTID": "Av Córdoba  - Sentido Liniers", "Observac": "Inauguradas en Agosto de 2019" }, "geometry": { "type": "Point", "coordinates": [ -58.438205462987753, -34.588582316280153 ] } },
{ "type": "Feature", "properties": { "ID": 634, "NOMBRE": "Av Córdoba", "CALLE1": "JUSTO JUAN B.", "CALLE2": "CORDOBA AV", "INTERSEC": "JUSTO JUAN B. &  CORDOBA  AV", "LIN_SENT_N": "34 - 166", "LIN_SENT_S": null, "METROBUS": "Metrobus Juan B. Justo", "NOM_SENTID": "Av Córdoba  - Sentido Pacífico", "Observac": "Inauguradas en Agosto de 2019" }, "geometry": { "type": "Point", "coordinates": [ -58.43828766176123, -34.589086990629802 ] } }
]
}
